[{"title": "ARMILAN SAIRAALA, RAVINTOLA LOUNASKEIDAS", "address": "ARMILANKATU 44, 53100 LAPPEENRANTA", "website": "", "location": {"lat": "61.0599", "lng": "28.212075"}, "lunchUrl": "", "type": "other"}, {"title": "ETEL\u00c4-KARJALAN KESKUSSAIRAALA, RAVINTOLA VALTO", "address": "VALTO K\u00c4KEL\u00c4N KATU 1, 53130 LAPPEENRANTA", "website": "", "location": {"lat": "61.065157", "lng": "28.210571"}, "lunchUrl": "", "type": "other"}, {"title": "INDIANA CURRY (LUT)", "address": "SKINNARILANKATU 34, 53850 LAPPEENRANTA", "website": "", "location": {"lat": "61.064935", "lng": "28.093505"}, "lunchUrl": "", "type": "other"}, {"title": "INDIANA CURRY (OPPILAANKATU)", "address": "OPPILAANKATU 4, 53100 LAPPEENRANTA", "website": "http://indianacurry.com/", "location": {"lat": "61.0482722", "lng": "28.1915902"}, "lunchUrl": "", "type": "other"}, {"title": "RAVINTOLA LASERI", "address": "LASERKATU 6, 53850 LAPPEENRANTA", "website": "http://www.aalef.fi", "location": {"lat": "61.062153", "lng": "28.096606"}, "lunchUrl": "", "type": "other"}, {"title": "RAVINTOLA LUT BUFFET", "address": "SKINNARILANKATU 34, 53850 LAPPEENRANTA", "website": "", "location": {"lat": "61.064935", "lng": "28.093505"}, "lunchUrl": "", "type": "other"}, {"title": "RAVINTOLA SKINNARILA", "address": "SKINNARILANKATU 36, 53850 LAPPEENRANTA", "website": "", "location": {"lat": "61.170075", "lng": "28.76942"}, "lunchUrl": "", "type": "other"}, {"title": "YLIOPPILASTALON RAVINTOLA", "address": "LASERKATU 10, 53850 LAPPEENRANTA", "website": "http://www.aalef.fi", "location": {"lat": "61.063989", "lng": "28.096005"}, "lunchUrl": "", "type": "other"}, {"title": "EVENTTI (3533)", "address": "KIRKKOKATU 23, 60220 SEIN\u00c4JOKI", "website": "https://www.foodandco.fi/", "location": {"lat": "62.78441", "lng": "22.822659"}, "lunchUrl": "", "type": "fazer"}, {"title": "RUOKASALI PIHLAJA", "address": "HANNEKSENRINNE 7, 60220 SEIN\u00c4JOKI", "website": "", "location": {"lat": "62.779841", "lng": "22.847782"}, "lunchUrl": "", "type": "other"}, {"title": "SEIN\u00c4JOEN AMK, FRAMI F (FI419310)", "address": "KAMPUSRANTA 11, 60320 SEIN\u00c4JOKI", "website": "http://www.sodexo.fi", "location": {"lat": "62.789592", "lng": "22.821884"}, "lunchUrl": "", "type": "other"}, {"title": "SEIN\u00c4JOEN AMK, KAMPUSTALO (FI419311)", "address": "KALEVANKATU 35, 60100 SEIN\u00c4JOKI", "website": "http://www.sodexo.fi", "location": {"lat": "62.789191", "lng": "22.826241"}, "lunchUrl": "", "type": "other"}, {"title": "MIKKELIN KESKUSSAIRAALA, RUOKAPALVELUT", "address": "PORRASSALMENKATU 35-37, 50100 MIKKELI", "website": "", "location": {"lat": "61.691821", "lng": "27.278705"}, "lunchUrl": "", "type": "other"}, {"title": "MOISION SAIRAALAN HENKIL\u00d6KUNTARAVINTOLA", "address": "MOISIONTIE 10, 50520 MIKKELI", "website": "", "location": {"lat": "61.655482", "lng": "27.278547"}, "lunchUrl": "", "type": "other"}, {"title": "RAVINTOLA DEXI", "address": "PATTERISTONKATU 3, 50100 MIKKELI", "website": "", "location": {"lat": "61.68026", "lng": "27.259768"}, "lunchUrl": "", "type": "other"}, {"title": "RAVINTOLA HERKKU", "address": "L\u00d6NNROTINKATU 5, 50100 MIKKELI", "website": "http://www.amica.fi/ravintolakampus", "location": {"lat": "61.6910055", "lng": "27.2636763"}, "lunchUrl": "", "type": "fazer"}, {"title": "RAVINTOLA KASARMINA", "address": "PATTERISTONKATU 3 B-RAK., 50100 MIKKELI", "website": "", "location": {"lat": "61.679363", "lng": "27.259475"}, "lunchUrl": "", "type": "other"}, {"title": "OPISKELIJARAVINTOLA VIIKUNA", "address": "HUVILAKATU 31, 76130 PIEKS\u00c4M\u00c4KI", "website": "http://www.sisop.fi", "location": {"lat": "62.3042", "lng": "27.131252"}, "lunchUrl": "", "type": "other"}, {"title": "LOUNASRAVINTOLA SYD\u00c4NYST\u00c4V\u00c4", "address": "KESKUSSAIRAALANTIE 6, 57120 SAVONLINNA", "website": "http://www.isshp.fi", "location": {"lat": "61.871022", "lng": "28.851008"}, "lunchUrl": "", "type": "other"}, {"title": "RAVINTOLA KAARI", "address": "SAVONNIEMENKATU 6, 57100 SAVONLINNA", "website": "", "location": {"lat": "61.866178", "lng": "28.878477"}, "lunchUrl": "", "type": "other"}, {"title": "HENKIL\u00d6ST\u00d6RAVINTOLA KOIVU", "address": "SOTKAMONTIE 13, 87300 KAJAANI", "website": "https://sote.kainuu.fi/ruokalistat", "location": {"lat": "64.213892", "lng": "27.7281560161542"}, "lunchUrl": "", "type": "other"}, {"title": "HENKIL\u00d6ST\u00d6RAVINTOLA T\u00c4HK\u00c4", "address": "SATAMAKATU 2 A, 87100 KAJAANI", "website": "https://sote.kainuu.fi/ruokalistat", "location": {"lat": "64.229834", "lng": "27.719492"}, "lunchUrl": "", "type": "other"}, {"title": "OPISKELIJARAVINTOLA FOX", "address": "KETUNPOLKU 1, 87100 KAJAANI", "website": "", "location": {"lat": "64.216897", "lng": "27.713222"}, "lunchUrl": "", "type": "other"}, {"title": "TUUPALAN KOULUN RUOKASALI", "address": "KAINUUNTIE 118, 88900 KUHMO", "website": "", "location": {"lat": "64.123632", "lng": "29.507047"}, "lunchUrl": "", "type": "other"}, {"title": "APAJA", "address": "KESKUSKATU 11, 88600 SOTKAMO", "website": "", "location": {"lat": "64.133217", "lng": "28.392036"}, "lunchUrl": "", "type": "other"}, {"title": "FORSSAN RUOKALA, KOSTHOLLI", "address": "WAHRENINKATU 11 E, 30100 FORSSA", "website": "http://www.hamk.fi", "location": {"lat": "60.815805", "lng": "23.620953"}, "lunchUrl": "", "type": "other"}, {"title": "LOUNASRAVINTOLA SAHERA", "address": "URHEILUKENT\u00c4NKATU 9, 30100 FORSSA", "website": "", "location": {"lat": "60.821508", "lng": "23.638349"}, "lunchUrl": "", "type": "other"}, {"title": "LEPAAN RUOKALA, ANNA", "address": "LEPAANTIE 129, 14610 LEPAA", "website": "http://www.hamk.fi", "location": {"lat": "61.119644", "lng": "24.331114"}, "lunchUrl": "", "type": "other"}, {"title": "EVON RUOKALA", "address": "SAARELANTIE 1, 16970 EVO", "website": "http://www.hamk.fi", "location": {"lat": "61.18688", "lng": "24.94541"}, "lunchUrl": "", "type": "other"}, {"title": "HAMK VISAM\u00c4KI", "address": "VANKANL\u00c4HDE 11, 13500 H\u00c4MEENLINNA", "website": "http://www.sodexo.fi", "location": {"lat": "60.977053", "lng": "24.480173"}, "lunchUrl": "", "type": "other"}, {"title": "LAMMIN BIOLOGINEN ASEMA", "address": "P\u00c4\u00c4J\u00c4RVENTIE 320, 16900 LAMMI", "website": "http://www.helsinki.fi/ml/lammi/", "location": {"lat": "61.077787", "lng": "25.006152"}, "lunchUrl": "", "type": "other"}, {"title": "SAIRAALAN KEITTI\u00d6 H\u00c4MEENLINNA", "address": "AHVENISTONTIE 20, 13530 H\u00c4MEENLINNA", "website": "", "location": {"lat": "60.98854", "lng": "24.412783"}, "lunchUrl": "", "type": "other"}, {"title": "VANAJAVEDEN SAIRAALAN HENKIL\u00d6ST\u00d6RAVINTOLA", "address": "VIIPURINTIE 1-3, 13200 H\u00c4MEENLINNA", "website": "https://ruoka.palmia.fi/fi/ravintola/ravintolat/", "location": {"lat": "60.9988709", "lng": "24.47555899435798"}, "lunchUrl": "", "type": "other"}, {"title": "HAMK SODEXO KAHVILA JA RAVINTOLA ROBOTTI", "address": "KAARTOKATU 2, 11100 RIIHIM\u00c4KI", "website": "http://www.sodexo.fi", "location": {"lat": "60.733981", "lng": "24.760456"}, "lunchUrl": "", "type": "other"}, {"title": "SAIRAALAN KEITTI\u00d6 RIIHIM\u00c4KI", "address": "KONTI0NTIE 77, 11120 RIIHIM\u00c4KI", "website": "", "location": {"lat": "60.740545", "lng": "24.765754"}, "lunchUrl": "", "type": "other"}, {"title": "MUSTIALAN RUOKALA, HUTTULA", "address": "HUTTULANTIE 3, 31310 MUSTIALA", "website": "http://www.hamk.fi", "location": {"lat": "61.66667", "lng": "23.56667"}, "lunchUrl": "", "type": "other"}, {"title": "CENTRIA AMK", "address": "TALONPOJANKATU 2, 67100 KOKKOLA", "website": "", "location": {"lat": "63.833604", "lng": "23.162372"}, "lunchUrl": "", "type": "other"}, {"title": "LOUNASRAVINTOLA KIPPO", "address": "MARIANKATU 16-20, 67200 KOKKOLA", "website": "", "location": {"lat": "63.846587", "lng": "23.118742"}, "lunchUrl": "", "type": "other"}, {"title": "ALKIO-OPISTON OPISKELIJARAVINTOLA SANTERI", "address": "T\u00c4HTINIEMENTIE 26, 41800 KORPILAHTI", "website": "", "location": {"lat": "62.01667", "lng": "25.55"}, "lunchUrl": "", "type": "other"}, {"title": "FIILU (3364)", "address": "PIIPPUKATU 11, 40100 JYV\u00c4SKYL\u00c4", "website": "https://www.foodandco.fi/ravintolat/Ravintolat-kaupungeittain/jyvaskyla/fiilu/", "location": {"lat": "62.240868", "lng": "25.757759"}, "lunchUrl": "ravintolatkartalla_menus/39.json", "type": "fazer"}, {"title": "JKL YO KIRJASTO L\u00c4HDE, RAVINTOLA TAIDE JA KAHVILA TIEDE", "address": "SEMINAARINKATU 15 B-RAK, 40100 JYV\u00c4SKYL\u00c4", "website": "https://www.compass-group.fi/", "location": {"lat": "62.374219", "lng": "25.867119"}, "lunchUrl": "", "type": "other"}, {"title": "JUVENES RAVINTOLA ANNA", "address": "KYMPINKATU 3C, 40320 JYV\u00c4SKYL\u00c4", "website": "http://www.juvenes.fi", "location": {"lat": "62.2533042", "lng": "25.7580839"}, "lunchUrl": "", "type": "other"}, {"title": "KAHVILA KVARKKI", "address": "SURVONTIE 9 YK-RAK., 40500 JYV\u00c4SKYL\u00c4", "website": "https://www.semma.fi/modules/json/json/Index?costNumber=140301&language=fi", "location": {"lat": "62.229351", "lng": "25.739465"}, "lunchUrl": "ravintolatkartalla_menus/42.json", "type": "semma"}, {"title": "KATRIINAN KASVISRAVINTOLA", "address": "KAUPPAKATU 11, 40100 JYV\u00c4SKYL\u00c4", "website": "", "location": {"lat": "62.239759", "lng": "25.74112"}, "lunchUrl": "", "type": "other"}, {"title": "LOUNASRAVINTOLA ILOKIVI", "address": "KESKUSSAIRAALANTIE 2, 40600 JYV\u00c4SKYL\u00c4", "website": "http://www.ilokivi.fi", "location": {"lat": "62.235126", "lng": "25.731133"}, "lunchUrl": "", "type": "other"}, {"title": "OPISKELIJAKAHVILA SYKE", "address": "KESKUSSAIRAALANTIE 4 L-RAK., 40600 JYV\u00c4SKYL\u00c4", "website": "https://www.semma.fi/modules/json/json/Index?costNumber=1405&language=fi", "location": {"lat": "62.234653", "lng": "25.728903"}, "lunchUrl": "ravintolatkartalla_menus/45.json", "type": "semma"}, {"title": "RAVINTOLA CUBE", "address": "PIIPPUKATU 2, 40100 JYV\u00c4SKYL\u00c4", "website": "http://www.juvenes.fi", "location": {"lat": "62.2415535", "lng": "25.7592533"}, "lunchUrl": "", "type": "other"}, {"title": "RAVINTOLA LOZZI", "address": "KESKUSSAIRAALANTIE 4 (P-RAK.), 40600 JYV\u00c4SKYL\u00c4", "website": "https://www.semma.fi/modules/json/json/Index?costNumber=1401&language=fi", "location": {"lat": "62.234608", "lng": "25.728546"}, "lunchUrl": "ravintolatkartalla_menus/47.json", "type": "semma"}, {"title": "RAVINTOLA MAIJA", "address": "AHLMANINKATU 2 (MA A-RAK.), 40100 JYV\u00c4SKYL\u00c4", "website": "https://www.semma.fi/modules/json/json/Index?costNumber=1402&language=fi", "location": {"lat": "62.230851", "lng": "25.734105"}, "lunchUrl": "ravintolatkartalla_menus/48.json", "type": "semma"}, {"title": "RAVINTOLA PIATO", "address": "MATTILANNIEMI 2, 40100 JYV\u00c4SKYL\u00c4", "website": "https://www.semma.fi/modules/json/json/Index?costNumber=1408&language=fi", "location": {"lat": "62.232247", "lng": "25.737315"}, "lunchUrl": "ravintolatkartalla_menus/49.json", "type": "semma"}, {"title": "RAVINTOLA POUKAMA", "address": "HOITAJANTIE 3, 40620 JYV\u00c4SKYL\u00c4", "website": "", "location": {"lat": "62.229922099999996", "lng": "25.704859774125417"}, "lunchUrl": "", "type": "other"}, {"title": "RAVINTOLA TWIST & CAF\u00e9 CURVE", "address": "RAJAKATU 35, 40200 JYV\u00c4SKYL\u00c4", "website": "http://www.juvenes.fi", "location": {"lat": "62.2517785", "lng": "25.7447108"}, "lunchUrl": "", "type": "other"}, {"title": "RAVINTOLA UNO", "address": "ALVAR AALLON KATU 9, 40600 JYV\u00c4SKYL\u00c4", "website": "https://www.semma.fi/modules/json/json/Index?costNumber=1414&language=fi", "location": {"lat": "62.233962", "lng": "25.732742"}, "lunchUrl": "ravintolatkartalla_menus/52.json", "type": "semma"}, {"title": "RAVINTOLA YLIST\u00d6", "address": "SURVONTIE 9 YFL-RAK., 40500 JYV\u00c4SKYL\u00c4", "website": "https://www.semma.fi/modules/json/json/Index?costNumber=1403&language=fi", "location": {"lat": "62.229964", "lng": "25.741089"}, "lunchUrl": "ravintolatkartalla_menus/53.json", "type": "semma"}, {"title": "RENTUKKA", "address": "TAITONIEKANTIE 9, 40740 JYV\u00c4SKYL\u00c4", "website": "https://www.semma.fi/modules/json/json/Index?costNumber=1416&language=fi", "location": {"lat": "62.248398", "lng": "25.709594"}, "lunchUrl": "ravintolatkartalla_menus/54.json", "type": "semma"}, {"title": "UUSI MUSIIKKIKAMPUS, RAVINTOLA FUUGA", "address": "PITK\u00c4KATU 18-22, 40100 JYV\u00c4SKYL\u00c4", "website": "https://www.gradia.fi/palvelut/ravintolat-ja-ruoka", "location": {"lat": "62.2441564", "lng": "25.7376003"}, "lunchUrl": "", "type": "other"}, {"title": "KONNEVEDEN TUTKIMUSASEMA", "address": "SIRKKAM\u00c4ENTIE 220, 44300 KONNEVESI", "website": "", "location": {"lat": "62.615774", "lng": "26.346155"}, "lunchUrl": "", "type": "other"}, {"title": "RUUSALIISAN RUOKASALI", "address": "MAIJANKUJA 2, 44300 KONNEVESI", "website": "", "location": {"lat": "62.629017", "lng": "26.286147"}, "lunchUrl": "", "type": "other"}, {"title": "RUOKALA T\u00c4HK\u00c4", "address": "UURAISTENTIE 240, 43130 TARVAALA", "website": "http://www.poke.fi", "location": {"lat": "62.66667", "lng": "25.3"}, "lunchUrl": "", "type": "other"}, {"title": "RAVINTOLA JUNNU", "address": "P\u00c4\u00c4SKYSENTIE 1, 48220 KOTKA", "website": "", "location": {"lat": "60.487367", "lng": "26.892695"}, "lunchUrl": "", "type": "other"}, {"title": "KASARMIRAVINTOLA (3548)", "address": "PARAATIKENTT\u00c4 5, 45100 KOUVOLA", "website": "https://www.foodandco.fi/ravintolat/Ravintolat-kaupungeittain/kouvola/kasarmiravintola/", "location": {"lat": "60.873594", "lng": "26.681448"}, "lunchUrl": "ravintolatkartalla_menus/60.json", "type": "fazer"}, {"title": "RAVINTOLA PAJA", "address": "KUUSELANKATU 1, 45100 KOUVOLA", "website": "", "location": {"lat": "60.872527", "lng": "26.679631"}, "lunchUrl": "", "type": "other"}, {"title": "KILPISJ\u00c4RVEN BIOLOGINEN ASEMA", "address": "K\u00c4SIVARRENTIE 14622, 99490 KILPISJ\u00c4RVI", "website": "", "location": {"lat": "69.05", "lng": "20.8"}, "lunchUrl": "", "type": "other"}, {"title": "HENKIL\u00d6ST\u00d6RAVINTOLA MERI", "address": "KAUPPAKATU 25, 94100 KEMI", "website": "http://www.kemi.fi", "location": {"lat": "65.733847", "lng": "24.554082"}, "lunchUrl": "", "type": "other"}, {"title": "RAVINTOLA LIPPO", "address": "TIETOKATU 1, 94600 KEMI", "website": "", "location": {"lat": "65.75364", "lng": "24.581619"}, "lunchUrl": "", "type": "other"}, {"title": "ALUEKEITTI\u00d6 1:N OPPILASRAVINTOLA", "address": "SEMINAARINKATU 10, 98120 KEMIJ\u00c4RVI", "website": "", "location": {"lat": "66.719089", "lng": "27.392588"}, "lunchUrl": "", "type": "other"}, {"title": "FELLI/ LAPIN YLIOPISTO (0602)", "address": "YLIOPISTONKATU 8, 96300 ROVANIEMI", "website": "https://www.foodandco.fi/ravintolat/Ravintolat-kaupungeittain/rovaniemi/felli/", "location": {"lat": "66.486273", "lng": "25.712098"}, "lunchUrl": "ravintolatkartalla_menus/66.json", "type": "fazer"}, {"title": "KAHVILA LOVISA", "address": "YLIOPISTONKATU 8, 96300 ROVANIEMI", "website": "https://www.foodandco.fi/ravintolat/Ravintolat-kaupungeittain/rovaniemi/felli/", "location": {"lat": "66.486273", "lng": "25.712098"}, "lunchUrl": "ravintolatkartalla_menus/67.json", "type": "fazer"}, {"title": "KUUKKELI/ VIRASTOTALO ROVANIEMI (0601)", "address": "HALLITUSKATU 3 A, 96100 ROVANIEMI", "website": "https://www.foodandco.fi/ravintolat/Ravintolat-kaupungeittain/rovaniemi/kuukkeli/", "location": {"lat": "66.4996389", "lng": "25.7160398"}, "lunchUrl": "ravintolatkartalla_menus/68.json", "type": "fazer"}, {"title": "LAPIN KESKUSSAIRAALA", "address": "OUNASRINTEENTIE 22, 96400 ROVANIEMI", "website": "", "location": {"lat": "66.492343", "lng": "25.772969"}, "lunchUrl": "", "type": "other"}, {"title": "LAPIN YO:N HARJOITTELUKOULU LUMIKELLO (0603)", "address": "POHJOLANKATU 23, 96100 ROVANIEMI", "website": "https://www.foodandco.fi/", "location": {"lat": "66.5036303", "lng": "25.7175342165328"}, "lunchUrl": "", "type": "fazer"}, {"title": "RAVINTOLA PUHTI", "address": "HIIHTOMAJANTIE 2, 96400 ROVANIEMI", "website": "", "location": {"lat": "66.497145", "lng": "25.766309"}, "lunchUrl": "", "type": "other"}, {"title": "RAVINTOLA TEKUILA JA KAHVILA LUMEN", "address": "JOKIV\u00c4YL\u00c4 11, 96300 ROVANIEMI", "website": "http://www.redu.fi", "location": {"lat": "66.480412", "lng": "25.721744"}, "lunchUrl": "", "type": "other"}, {"title": "RAVINTOLA PIKANTTI", "address": "URHEILUKATU 6, 95400 TORNIO", "website": "", "location": {"lat": "65.8517416", "lng": "24.1416519"}, "lunchUrl": "", "type": "other"}, {"title": "LAPIN TUTKIMUSLAITOS KEVO", "address": "KEVONTIE 470, 99980 UTSJOKI", "website": "", "location": {"lat": "69.75705365", "lng": "27.0089187"}, "lunchUrl": "", "type": "other"}, {"title": "HYYTI\u00c4L\u00c4N METS\u00c4ASEMA", "address": "HYYTI\u00c4L\u00c4NTIE 124, 35500 KORKEAKOSKI", "website": "http://www.honeybee.helsinki.fi/hyytiala/", "location": {"lat": "61.846049", "lng": "24.28642"}, "lunchUrl": "", "type": "other"}, {"title": "M\u00c4NT\u00c4N SEUDUN KOULUTUSKESKUS", "address": "VIRTASALMENTIE 14, 35800 M\u00c4NTT\u00c4", "website": "http://www.mantta.fi/mskk", "location": {"lat": "62.033467", "lng": "24.627671"}, "lunchUrl": "", "type": "other"}, {"title": "CAF\u00c9 PINNI", "address": "KANSLERINRINNE 1, 33014 TAMPEREEN YLIOPISTO", "website": "http://www.juvenes.fi", "location": {"lat": "60.456748", "lng": "22.281955"}, "lunchUrl": "", "type": "other"}, {"title": "CAMPUSRAVITA OY", "address": "KUNTOKATU 3, 33520 TAMPERE", "website": "", "location": {"lat": "61.505069", "lng": "23.807947"}, "lunchUrl": "", "type": "other"}, {"title": "FINN-MEDIN RAVINTOLA", "address": "ARVO YLP\u00d6N KATU 6, 33520 TAMPERE", "website": "", "location": {"lat": "61.506198", "lng": "23.812814"}, "lunchUrl": "", "type": "other"}, {"title": "KAMPUSAREENA/TAMPEREEN TEKNILLINEN YLIOPISTO(0810)", "address": "KORKEAKOULUNKATU 7, 33720 TAMPERE", "website": "https://www.foodandco.fi/ravintolat/Ravintolat-kaupungeittain/tampere/reaktori/", "location": {"lat": "61.449878", "lng": "23.8587232489769"}, "lunchUrl": "ravintolatkartalla_menus/80.json", "type": "fazer"}, {"title": "MIEKKALEIJONA", "address": "VAAJAKATU 2, 33720 TAMPERE", "website": "", "location": {"lat": "61.708766", "lng": "23.673573"}, "lunchUrl": "", "type": "other"}, {"title": "MINERVA/TAMPEREEN YLIOPISTO (0815)", "address": "KANSLERINRINNE 1 B, 33100 TAMPERE", "website": "https://www.foodandco.fi/ravintolat/Ravintolat-kaupungeittain/tampere/minerva/", "location": {"lat": "61.4946749", "lng": "23.7763876"}, "lunchUrl": "ravintolatkartalla_menus/82.json", "type": "fazer"}, {"title": "RAVINTOLA ARVO JA CAF\u00c9 LEA", "address": "ARVO YLP\u00d6N KATU 34, 33520 TAMPERE", "website": "http://www.juvenes.fi", "location": {"lat": "61.506368", "lng": "23.822801"}, "lunchUrl": "", "type": "other"}, {"title": "RAVINTOLA HERTSI (FI419381)", "address": "KORKEAKOULUNKATU 1, 33720 TAMPERE", "website": "http://www.sodexo.fi", "location": {"lat": "61.449847", "lng": "23.855796"}, "lunchUrl": "", "type": "other"}, {"title": "RAVINTOLA LINNA(FI438868)", "address": "KALEVANTIE 5, 33100 TAMPERE", "website": "http://www.sodexo.fi", "location": {"lat": "61.495342", "lng": "23.777946"}, "lunchUrl": "", "type": "other"}, {"title": "RAVINTOLA MISTELI", "address": "TEISKONTIE 35, TAYS P-RAKENNUS, 33520 TAMPERE", "website": "", "location": {"lat": "61.505199", "lng": "23.814908"}, "lunchUrl": "", "type": "other"}, {"title": "RAVINTOLA NEWTON JA CAF\u00c9 KONEHUONE", "address": "KORKEAKOULUNKATU 6 A, 33720 TAMPERE", "website": "http://www.juvenes.fi", "location": {"lat": "61.448785", "lng": "23.860014"}, "lunchUrl": "", "type": "other"}, {"title": "RAVINTOLA TORI MEDIAPOLIS", "address": "TOHLOPINRANTA 31, 33270 TAMPERE", "website": "http://www.juvenes.fi", "location": {"lat": "61.505875", "lng": "23.646928"}, "lunchUrl": "", "type": "other"}, {"title": "RESTAURANT FRENCKELL & PIHA", "address": "FRENCKELLINAUKIO 2 H, 33210 TAMPERE", "website": "http://www.juvenes.fi", "location": {"lat": "61.4996224", "lng": "23.7598949"}, "lunchUrl": "", "type": "other"}, {"title": "YLIOPISTON RAVINTOLA, ALAKUPPILA, VEGES\u00c5\u00c5SBAR, TOIVO", "address": "KALEVANTIE 4, 33014 TAMPEREEN YLIOPISTO", "website": "http://www.juvenes.fi", "location": {"lat": "61.494222", "lng": "23.780435"}, "lunchUrl": "", "type": "other"}, {"title": "HAMK VALKEAKOSKI", "address": "TIETOTIE 1, 37630 VALKEAKOSKI", "website": "http://www.sodexo.fi", "location": {"lat": "61.2794769", "lng": "23.9981105147705"}, "lunchUrl": "", "type": "other"}, {"title": "KAHVILA SENTTI (0824)", "address": "TIETOTIE 1, 37630 VALKEAKOSKI", "website": "http://www.sodexo.fi", "location": {"lat": "61.2794769", "lng": "23.9981105147705"}, "lunchUrl": "", "type": "other"}, {"title": "SILMU. TAMPEREEN SEUDUN AMMATTIOPISTO TREDU (0829)", "address": "METS\u00c4TIE 1, 34300 KURU", "website": null, "location": {"lat": "61.8757261", "lng": "23.7221981"}, "lunchUrl": "ravintolatkartalla_menus/93.json", "type": "fazer"}, {"title": "CAMPUS ALLEGRO", "address": "K\u00d6PMANSGATAN 10, 68600 PIETARSAARI", "website": "https://www.alerte.fi/", "location": {"lat": "63.6737985", "lng": "22.7054752"}, "lunchUrl": "", "type": "other"}, {"title": "CAF\u00e9 TECHNO", "address": "BOMULLSGR\u00c4ND 3, 65200 VAASA", "website": "https://www.cafetechno.fi/fi/", "location": {"lat": "63.104088", "lng": "21.595243"}, "lunchUrl": "", "type": "other"}, {"title": "CAF\u00c9 ANN-MARI", "address": "PB 311, STRANDGATAN 2, 65101 VAASA", "website": "", "location": {"lat": "63.098353", "lng": "21.601044"}, "lunchUrl": "", "type": "other"}, {"title": "CAF\u00c9 HERMES/HANKEN (3567)", "address": "KAUPPAPUISTIKKO 2, 65100 VAASA", "website": "http://www.amica.fi/hermes", "location": {"lat": "63.0935024", "lng": "21.6180806"}, "lunchUrl": "", "type": "fazer"}, {"title": "CAF\u00c9 OSKARI", "address": "YLIOPISTONRANTA 7, 65200 VAASA", "website": "http://www.juvenes.fi", "location": {"lat": "63.104773", "lng": "21.591854"}, "lunchUrl": "", "type": "other"}, {"title": "PSYKIATRIAN YKSIK\u00d6N RUOKASALI, VAASAN KESKUSSAIRAALA", "address": "SARJAKATU 2, 65320 VAASA", "website": "", "location": {"lat": "63.087676", "lng": "21.677558"}, "lunchUrl": "", "type": "other"}, {"title": "RAVINTOLA ALERE JA CAF\u00c9 ALERE", "address": "WOLFFINTIE 27-31, 65200 VAASA", "website": "http://www.juvenes.fi", "location": {"lat": "63.106344", "lng": "21.594605"}, "lunchUrl": "", "type": "other"}, {"title": "RAVINTOLA COTTON CLUB", "address": "YLIOPISTONRANTA 2, 65200 VAASA", "website": "", "location": {"lat": "63.103528", "lng": "21.595403"}, "lunchUrl": "", "type": "other"}, {"title": "RAVINTOLA ERKKI", "address": "YLIOPISTONRANTA 10, 65200 VAASA", "website": "http://www.juvenes.fi", "location": {"lat": "63.103735", "lng": "21.593372"}, "lunchUrl": "", "type": "other"}, {"title": "RAVINTOLA MATHILDA", "address": "WOLFFINTIE 34, 65200 VAASA", "website": "http://www.juvenes.fi", "location": {"lat": "63.105117", "lng": "21.591119"}, "lunchUrl": "", "type": "other"}, {"title": "RAVINTOLA SERVERI JA CAF\u00c9 WOLFF\u00b4S STREET", "address": "WOLFFINTIE 30, 65200 VAASA", "website": "http://www.juvenes.fi", "location": {"lat": "63.106492", "lng": "21.59166"}, "lunchUrl": "", "type": "other"}, {"title": "RESTAURANG ALEXANDER", "address": "PB 311, STRANDGATAN 2, 65101 VAASA", "website": "", "location": {"lat": "63.098353", "lng": "21.601044"}, "lunchUrl": "", "type": "other"}, {"title": "RESTAURANG W33", "address": "WOLFFSKAV\u00c4GEN 33, 65200 VAASA", "website": "", "location": {"lat": "63.105532", "lng": "21.595576"}, "lunchUrl": "", "type": "other"}, {"title": "TAMMIKAIVON TERVEYSASEMA", "address": "TAMMIKAIVONTIE 4, 65100 VAASA", "website": "", "location": {"lat": "63.0989929", "lng": "21.6476476"}, "lunchUrl": "", "type": "other"}, {"title": "VAASAN KESKUSSAIRAALAN RUOKASALI", "address": "HIETALAHDENKATU 2-4, 65130 VAASA", "website": "", "location": {"lat": "63.085519", "lng": "21.61822"}, "lunchUrl": "", "type": "other"}, {"title": "CARELIA/IT\u00c4-SUOMEN YLIOPISTO (0417)", "address": "YLIOPISTOKATU 4, 80100 JOENSUU", "website": "https://www.foodandco.fi/ravintolat/Ravintolat-kaupungeittain/joensuu/opiskelijaravintola-carelia/", "location": {"lat": "62.603690", "lng": "29.739928"}, "lunchUrl": "ravintolatkartalla_menus/109.json", "type": "fazer"}, {"title": "FUTURA JA KAHVILA METRIA IT\u00c4-SUOMEN YO JOENSUU (0420)", "address": "YLIOPISTOKATU 7, 80100 JOENSUU", "website": "https://www.foodandco.fi/ravintolat/Ravintolat-kaupungeittain/joensuu/futura/", "location": {"lat": "62.604424", "lng": "29.738029"}, "lunchUrl": "ravintolatkartalla_menus/110.json", "type": "fazer"}, {"title": "JAKELUPISTE BOREALIS / IT\u00c4-SUOMEN YO (0423)", "address": "YLIOPISTOKATU 7, 80100 JOENSUU", "website": "https://www.foodandco.fi/ravintolat/Ravintolat-kaupungeittain/joensuu/futura/", "location": {"lat": "62.604424", "lng": "29.738029"}, "lunchUrl": "ravintolatkartalla_menus/111.json", "type": "fazer"}, {"title": "OPISKELIJAKATU (0433) / IT\u00c4-SUOMEN YLIOPISTO, JOENSUU", "address": "OPISKELIJANKATU 7, 80130 JOENSUU", "website": "", "location": {"lat": "62.6054559", "lng": "29.7469308"}, "lunchUrl": "", "type": "other"}, {"title": "POHJOIS-KARJALAN OPISTON OPPILASRUOKALA, HERKKUKELLARI", "address": "NIITTYLAHDENTIE 297, 82220 NIITTYLAHTI", "website": "", "location": {"lat": "62.527638", "lng": "29.846433"}, "lunchUrl": "", "type": "other"}, {"title": "RAVINTOLA ASKEL", "address": "TELITIE 1 D, 1.KRS, 80100 JOENSUU", "website": "", "location": {"lat": "62.628277", "lng": "29.751162"}, "lunchUrl": "", "type": "other"}, {"title": "RAVINTOLA NATURA (0421)", "address": "YLIOPISTOKATU 4, 80100 JOENSUU", "website": "https://www.foodandco.fi/ravintolat/Ravintolat-kaupungeittain/joensuu/opiskelijaravintola-carelia/", "location": {"lat": "62.603690", "lng": "29.739928"}, "lunchUrl": "ravintolatkartalla_menus/115.json", "type": "fazer"}, {"title": "RAVINTOLA POHJANTIKKA", "address": "TIKKAM\u00c4ENTIE 16, 80210 JOENSUU", "website": "", "location": {"lat": "62.591203", "lng": "29.781905"}, "lunchUrl": "", "type": "other"}, {"title": "SOLINA KARELIA AMK TIKKARINTEEN KAMPUS (0424)", "address": "TIKKARINNE 9, 80200 JOENSUU", "website": "https://www.foodandco.fi/ravintolat/Ravintolat-kaupungeittain/joensuu/solina/", "location": {"lat": "62.5887027", "lng": "29.7791531"}, "lunchUrl": "ravintolatkartalla_menus/117.json", "type": "fazer"}, {"title": "WIRE/KARELIA AMK W\u00c4RTSIL\u00c4N KAMPUS (0447)", "address": "KARJALANKATU 3, 80200 JOENSUU", "website": "https://www.foodandco.fi/ravintolat/Ravintolat-kaupungeittain/joensuu/wire/", "location": {"lat": "62.5966083", "lng": "29.7778976"}, "lunchUrl": "ravintolatkartalla_menus/118.json", "type": "fazer"}, {"title": "KITEEN KOULUTUSYKSIKK\u00d6, RAVINTOLA PAUSSI", "address": "SAVIKONTIE 13, 82500 KITEE", "website": "", "location": {"lat": "62.0912167", "lng": "30.1631506"}, "lunchUrl": "", "type": "other"}, {"title": "KUUSAMO-OPISTO", "address": "KITKANTIE 35, 93600 KUUSAMO", "website": "http://www.kuusamo-opisto.fi", "location": {"lat": "65.968962", "lng": "29.177667"}, "lunchUrl": "", "type": "other"}, {"title": "OPPILASRAVINTOLA SALVIA", "address": "OULANGANTIE 1, 93600 KUUSAMO", "website": "", "location": {"lat": "65.965234", "lng": "29.172748"}, "lunchUrl": "", "type": "other"}, {"title": "", "address": ",  ", "website": "", "location": null, "lunchUrl": "", "type": "other"}, {"title": "CARDIA. OULAISTEN TERVEYDENHUOLTO-OPPILAITOS (0233)", "address": "KUNTOTIE 2, 86300 OULAINEN", "website": "http://www.amica.fi/cardia", "location": {"lat": "64.26641435", "lng": "24.8476421748434"}, "lunchUrl": "", "type": "fazer"}, {"title": "", "address": ",  ", "website": "", "location": null, "lunchUrl": "", "type": "other"}, {"title": "ALWARI OAMK KONTINKANKAAN KAMPUS (0226)", "address": "KIVIHARJUNTIE 8, 90220 OULU", "website": null, "location": {"lat": "65.0092519", "lng": "25.5069292"}, "lunchUrl": "ravintolatkartalla_menus/125.json", "type": "fazer"}, {"title": "CAF\u00e9 HUB", "address": "PENTTI KAITERAN KATU 1, OVI T, 90014 OULUN YLIOPISTO", "website": "http://www.juvenes.fi", "location": {"lat": "65.059277", "lng": "25.466168"}, "lunchUrl": "", "type": "other"}, {"title": "NETTIKAHVILA", "address": "AAPISTIE 7, 90014 OULUN YLIOPISTO", "website": "http://www.uniresta.fi", "location": {"lat": "62.704448", "lng": "25.259993"}, "lunchUrl": "", "type": "other"}, {"title": "ODL KANTAKORTTELI (1694)", "address": "ALBERTINKATU 16, 90100 OULU", "website": "https://www.foodandco.fi/ravintolat/Ravintolat-kaupungeittain/oulu/kantakortteli/", "location": {"lat": "65.009389", "lng": "25.46987"}, "lunchUrl": "ravintolatkartalla_menus/128.json", "type": "fazer"}, {"title": "OULUN NORMAALIKOULU ALA-ASTE LINNANMAA(237)", "address": "YLIOPISTONKATU 48, 90570 OULU", "website": null, "location": {"lat": "65.062246", "lng": "25.473747"}, "lunchUrl": "ravintolatkartalla_menus/129.json", "type": "fazer"}, {"title": "OULUN YLIOPISTOLLINEN SAIRAALA", "address": "PL 50, 90029 OYS", "website": "http://www.ppshp.fi/ravintolapalvelut/", "location": {"lat": "65.005695", "lng": "25.520508"}, "lunchUrl": "", "type": "other"}, {"title": "OULUN YO:N HARJOITTELUKOULU (0242) KOSKELAN YKSIKK\u00d6", "address": "TULLIMIEHENKATU 8, 90560 OULU", "website": "https://www.foodandco.fi/", "location": {"lat": "65.16051", "lng": "25.786963"}, "lunchUrl": "", "type": "fazer"}, {"title": "RAVINTOLA KASTARI", "address": "PENTTI KAITERAN KATU 1, 90014 OULUN YLIOPISTO", "website": "http://www.uniresta.fi", "location": {"lat": "65.057219", "lng": "25.467583"}, "lunchUrl": "", "type": "other"}, {"title": "RAVINTOLA MEDISIINA", "address": "AAPISTIE 5 A, 90014 OULUN YLIOPISTO", "website": "http://www.uniresta.fi", "location": {"lat": "60.451992", "lng": "22.291555"}, "lunchUrl": "", "type": "other"}, {"title": "RAVINTOLA PEKURI", "address": "TORIKATU 15-17, 90100 OULU", "website": "http://www.uniresta.fi", "location": {"lat": "65.0132195", "lng": "25.4695924"}, "lunchUrl": "", "type": "other"}, {"title": "RAVINTOLA PRELUDI", "address": "LEEVI MADETOJAN KATU 1-3, 90140 OULU", "website": "http://www.uniresta.fi", "location": {"lat": "65.000272", "lng": "25.481685"}, "lunchUrl": "", "type": "other"}, {"title": "RESTAURANT FOOBAR", "address": "PENTTI KAITERAN KATU 1, OVI R, 90014 OULUN YLIOPISTO", "website": "http://www.juvenes.fi", "location": {"lat": "65.058181", "lng": "25.466716"}, "lunchUrl": "", "type": "other"}, {"title": "RESTAURANT FOODOO", "address": "PENTTI KAITERAN KATU 1, OVI A, 90014 OULUN YLIOPISTO", "website": "http://www.juvenes.fi", "location": {"lat": "65.060538", "lng": "25.466437"}, "lunchUrl": "", "type": "other"}, {"title": "RESTAURANT KYLYM\u00c4", "address": "PENTTI KAITERAN KATU 1, OVI E, 90014 OULUN YLIOPISTO", "website": "http://www.juvenes.fi", "location": {"lat": "65.057989", "lng": "25.468469"}, "lunchUrl": "", "type": "other"}, {"title": "RESTAURANT MARA", "address": "PENTTI KAITERAN KATU 1, OVI C, 90014 OULUN YLIOPISTO", "website": "http://www.juvenes.fi", "location": {"lat": "65.061214", "lng": "25.466769"}, "lunchUrl": "", "type": "other"}, {"title": "RESTAURANT NAPA", "address": "ERKKI KOISO-KANTTILANKATU, 90570 OULU", "website": "http://www.juvenes.fi", "location": {"lat": "65.0592421", "lng": "25.4698878"}, "lunchUrl": "", "type": "other"}, {"title": "AMMATTIOPISTON KEITTI\u00d6", "address": "TERVAHOVINKATU 2, 92100 RAAHE", "website": "https://raahe.fi/elinymparisto/ateria-ja-puhtaus", "location": {"lat": "64.67710195000001", "lng": "24.481695499999997"}, "lunchUrl": "", "type": "other"}, {"title": "LYBECKERIN KEITTI\u00d6", "address": "SOFIA LYBECKERIN KATU 1, 92100 RAAHE", "website": "https://raahe.fi/elinymparisto/ateria-ja-puhtaus", "location": {"lat": "64.68876524999999", "lng": "24.485952356518677"}, "lunchUrl": "", "type": "other"}, {"title": "MESSI/KPAMK YLIVIESKAN YKSIKK\u00d6 TEKNIIKKA (3565)", "address": "VIERIMAANTIE 7, 84100 YLIVIESKA", "website": null, "location": {"lat": "64.0750627", "lng": "24.5167409"}, "lunchUrl": "ravintolatkartalla_menus/143.json", "type": "fazer"}, {"title": "RAUDASKYL\u00c4N KRISTILLISEN OPISTON RAVINTOLA", "address": "OPISTONTIE 4-6, 84880 YLIVIESKA", "website": "http://rko.cop.fi", "location": {"lat": "64.005723", "lng": "24.7468814"}, "lunchUrl": "", "type": "other"}, {"title": "YL\u00c4-SAVON AMMATTIOPISTO/PELTOSALMEN YKSIKK\u00d6", "address": "KOTIKYL\u00c4NTIE 254, 74100 IISALMI", "website": "", "location": {"lat": "63.498016", "lng": "27.217142"}, "lunchUrl": "", "type": "other"}, {"title": "AMICA-RAVINTOLA CANTHIA (0436)", "address": "YLIOPISTONRANTA 1 C, B PORRAS, 70210 KUOPIO", "website": "https://www.foodandco.fi/", "location": {"lat": "62.895173", "lng": "27.641187"}, "lunchUrl": "", "type": "fazer"}, {"title": "ANTELL ROUND", "address": "MICROKATU 1, PL 1188, 70210 KUOPIO", "website": "https://www.antell.fi/round", "location": {"lat": "62.887814", "lng": "27.62864"}, "lunchUrl": "", "type": "other"}, {"title": "HILIMA 6809", "address": "KYS RAK1 T-K\u00c4YT\u00c4V\u00c4 PUIJONLAAKSONTIE 2, 70210 KUOPIO", "website": "", "location": {"lat": "63.156519", "lng": "27.304358"}, "lunchUrl": "", "type": "other"}, {"title": "JAKELUPISTE (0442) MEDITEKNIA. IT\u00c4-SUOMEN YLIOPISTO", "address": "HARJULANTIE 1, 70210 KUOPIO", "website": null, "location": {"lat": "62.895913", "lng": "27.640165"}, "lunchUrl": "ravintolatkartalla_menus/149.json", "type": "fazer"}, {"title": "KAARRE 6810", "address": "KYS RAK 2, 1KRS PUIJONALAAKSONTIE 2, 70210 KUOPIO", "website": "", "location": {"lat": "65.35", "lng": "27.06667"}, "lunchUrl": "", "type": "other"}, {"title": "KUOPION MUSIIKKIKESKUKSEN RAVINTOLA", "address": "KUOPIONLAHDENKATU 23, 70100 KUOPIO", "website": "http://www.kanresta.fi", "location": {"lat": "62.888318", "lng": "27.678824"}, "lunchUrl": "", "type": "other"}, {"title": "OPISKELIJARAVINTOLA KOIVUKOKKI", "address": "KANSANOPISTOTIE 32, 70800 KUOPIO", "website": "http://www.psko.fi", "location": {"lat": "62.814707", "lng": "27.628414"}, "lunchUrl": "", "type": "other"}, {"title": "RAVINTOKESKUS", "address": "NIUVANKUJA 65, 70240 KUOPIO", "website": "", "location": {"lat": "62.912329", "lng": "27.626252"}, "lunchUrl": "", "type": "other"}, {"title": "SAVOTALO 6812", "address": "TULLIPORTINKATU 17, 70700 KUOPIO", "website": "", "location": {"lat": "62.893829", "lng": "27.68514"}, "lunchUrl": "", "type": "other"}, {"title": "SNELLMANIA. IT\u00c4-SUOMEN YO KUOPIN KAMPUS (0437)", "address": "YLIOPISTONRANTA 1 E, 70210 KUOPIO", "website": "https://www.foodandco.fi/ravintolat/Ravintolat-kaupungeittain/kuopio/ita-suomen-yliopisto--snellmania/", "location": {"lat": "62.892563", "lng": "27.635518"}, "lunchUrl": "ravintolatkartalla_menus/155.json", "type": "fazer"}, {"title": "TIETOTEKNIA (0439)", "address": "SAVILAHDENTIE 6 L 4, 70210 KUOPIO", "website": "https://www.foodandco.fi/ravintolat/Ravintolat-kaupungeittain/kuopio/tietoteknia/", "location": {"lat": "62.890845", "lng": "27.636741"}, "lunchUrl": "ravintolatkartalla_menus/156.json", "type": "fazer"}, {"title": "LOUNASRAVINTOLA HELMI", "address": "OSMAJOENTIE 75 A, 78210 VARKAUS", "website": "", "location": {"lat": "62.328276", "lng": "27.852027"}, "lunchUrl": "", "type": "other"}, {"title": "RAVINTOLA PUHTI", "address": "PIHKALANTIE 3, 19120 VIERUM\u00c4KI", "website": "", "location": {"lat": "60.35918", "lng": "25.03741"}, "lunchUrl": "", "type": "other"}, {"title": "LEHTIOJAN PALVELUKESKUKSEN KEITTI\u00d6", "address": "LEHTIOJANTIE 2, 15240 LAHTI", "website": "", "location": {"lat": "61.0224928", "lng": "25.6697856"}, "lunchUrl": "", "type": "other"}, {"title": "PHHYKY SAIRAALAN HENKIL\u00d6ST\u00d6RAVINTOLA", "address": "KESKUSSAIRAALANKATU 7, 15850 LAHTI", "website": "", "location": {"lat": "60.99289325", "lng": "25.568258683957186"}, "lunchUrl": "", "type": "other"}, {"title": "RAVINTOLAT ISKUCENTER", "address": "MUKKULANKATU 19, 15210 LAHTI", "website": "", "location": {"lat": "61.005463", "lng": "25.664203"}, "lunchUrl": "", "type": "other"}, {"title": "SALPAUSSEL\u00c4N KUNTOUTUSSAIR JALMARIN HENKIL\u00d6ST\u00d6RAVINTOLA", "address": "TARJANTIE 78, 15950 LAHTI", "website": "", "location": {"lat": "60.9916285", "lng": "25.5902564"}, "lunchUrl": "", "type": "other"}, {"title": "ORIMATTILAN TERVEYSKESKUKSEN KEITTI\u00d6", "address": "TERVEYSTIE 1, 16300 ORIMATTILA", "website": "", "location": {"lat": "60.7972499", "lng": "25.7189603"}, "lunchUrl": "", "type": "other"}, {"title": "HARJAVALLAN SAIRAALAN RUOKAPALVELUT", "address": "SAIRAALANTIE 14, 29200 HARJAVALTA", "website": "", "location": {"lat": "61.302718", "lng": "22.146557"}, "lunchUrl": "", "type": "other"}, {"title": "HUITTISTEN AMMATTI- JA YRITT\u00c4J\u00c4OPISTO(3667)", "address": "RISTO RYTIN KATU 70, 32700 HUITTINEN", "website": null, "location": {"lat": "61.179772", "lng": "22.714923"}, "lunchUrl": "ravintolatkartalla_menus/165.json", "type": "fazer"}, {"title": "ARKEA RAVINTOLA 100-ART", "address": "PAASIKIVENKATU 24, 38700 KANKAANP\u00c4\u00c4", "website": "", "location": {"lat": "61.802819", "lng": "22.399162"}, "lunchUrl": "", "type": "other"}, {"title": "LOUNAS- JA JUHLAPALVELU PIKANTTI, RAV. PIHLAJASALI", "address": "METS\u00c4MIEHENKATU 2, 28500 PORI", "website": "", "location": {"lat": "61.475134", "lng": "21.776193"}, "lunchUrl": "", "type": "other"}, {"title": "PORIN SAIRAALAN RAVINTOKESKUS", "address": "MAANTIEKATU 31, 28120 PORI", "website": "", "location": {"lat": "61.486207", "lng": "21.769441"}, "lunchUrl": "", "type": "other"}, {"title": "RAVINTOLA SKENE JA CAF\u00e9 AGORA", "address": "SATAKUNNANKATU 25, 28130 PORI", "website": "http://www.juvenes.fi", "location": {"lat": "61.47558", "lng": "21.794255"}, "lunchUrl": "", "type": "other"}, {"title": "SATASAIRAALAN HENKIL\u00d6ST\u00d6RAVINTOLA TYRNI & KAHVIO MOCCA", "address": "SAIRAALANTIE 3, 28500 PORI", "website": "", "location": {"lat": "61.473583", "lng": "21.778543"}, "lunchUrl": "", "type": "other"}, {"title": "SOFIA/PORIN YLIOPISTOKESKUS (3659)", "address": "SILTAPUISTOKATU 2, 28100 PORI", "website": null, "location": {"lat": "61.4932946", "lng": "21.7989291"}, "lunchUrl": "ravintolatkartalla_menus/171.json", "type": "fazer"}, {"title": "L\u00c4NSITUULI/OKL RAUMAN YKSIKK\u00d6 & TORNI (0557)", "address": "SEMINAARINKATU 1, 26100 RAUMA", "website": null, "location": {"lat": "61.13055875", "lng": "21.497761855037"}, "lunchUrl": "ravintolatkartalla_menus/172.json", "type": "fazer"}, {"title": "OPISKELIJARAVINTOLA MESSI", "address": "SUOJANTIE 2, 26100 RAUMA", "website": "", "location": {"lat": "61.126465", "lng": "21.477884"}, "lunchUrl": "", "type": "other"}, {"title": "OPISKELIJARAVINTOLA SOSTERI", "address": "STENIUKSENKATU 8, 26100 RAUMA", "website": "", "location": {"lat": "61.130809", "lng": "21.529254"}, "lunchUrl": "", "type": "other"}, {"title": "RAVINTOLA KANALI", "address": "SATAMAKATU 26, 26100 RAUMA", "website": "http://www.juvenes.fi", "location": {"lat": "61.127745", "lng": "21.483652"}, "lunchUrl": "", "type": "other"}, {"title": "STENIUKSEN KESKUSKEITTI\u00d6N HENKIL\u00d6ST\u00d6RAVINTOLA", "address": "STENIUKSENKATU 2, 26100 RAUMA", "website": "", "location": {"lat": "61.130478", "lng": "21.523096"}, "lunchUrl": "", "type": "other"}, {"title": "SOSIAALIPALVELUJEN RUOKAPALVELUT", "address": "RAVANINTIE 359, 28450 VANHA-ULVILA", "website": "", "location": {"lat": "61.4349208", "lng": "21.8966699"}, "lunchUrl": "", "type": "other"}, {"title": "AALTO KVARKKI", "address": "OTAKAARI 3, 02150 ESPOO", "website": "http://www.sodexo.fi", "location": {"lat": "60.18839", "lng": "24.829943"}, "lunchUrl": "", "type": "other"}, {"title": "AALTO-YLIOPISTO SODEXO KONETEKNIIKKA (FI137146)", "address": "OTAKAARI 4, 02150 ESPOO", "website": "http://www.sodexo.fi", "location": {"lat": "60.187193", "lng": "24.826872"}, "lunchUrl": "", "type": "other"}, {"title": "AALTO-YO TIETOTEKNIIKANTALO (FI137147)/SUBWAY OTANIEMI", "address": "KONEMIEHENTIE 2, 02150 ESPOO", "website": "http://www.sodexo.fi", "location": {"lat": "60.186968", "lng": "24.821748"}, "lunchUrl": "", "type": "other"}, {"title": "ALVARI/ AALTO YLIOPISTO (0190)", "address": "OTAKAARI 1 D, 02150 ESPOO", "website": "https://www.foodandco.fi/ravintolat/Ravintolat-kaupungeittain/espoo/alvari/", "location": {"lat": "60.185893", "lng": "24.828198"}, "lunchUrl": "ravintolatkartalla_menus/181.json", "type": "fazer"}, {"title": "BARLAUREA OPETUSRAVINTOLA", "address": "VANHA MAANTIE 9, 02650 ESPOO", "website": "", "location": {"lat": "60.223441", "lng": "24.80535"}, "lunchUrl": "", "type": "other"}, {"title": "DIPOLI RAVINTOLAT, AALTO YLIOPISTO (3101)", "address": "OTAKAARI 24, 02150 ESPOO", "website": "https://www.foodandco.fi/ravintolat/Ravintolat-kaupungeittain/espoo/dipoli/", "location": {"lat": "60.184923", "lng": "24.832206"}, "lunchUrl": "ravintolatkartalla_menus/183.json", "type": "fazer"}, {"title": "FAZER FOOD & CO. A BLOCK RAVINTOLA, AALTO METROKESKUS", "address": "OTANIEMENTIE 12, 02150 ESPOO", "website": "https://www.foodandco.fi/ravintolat/Ravintolat-kaupungeittain/espoo/a-bloc/", "location": {"lat": "60.184645", "lng": "24.825624"}, "lunchUrl": "ravintolatkartalla_menus/184.json", "type": "fazer"}, {"title": "JORVIN SAIRAALA, RUOKAPALVELUT", "address": "TURUNTIE 150, 02740 ESPOO", "website": "", "location": {"lat": "60.222026", "lng": "24.688746"}, "lunchUrl": "", "type": "other"}, {"title": "KIPSARI (K\u00c4YNTIOS. OTANIEMENTIE 14, 02150 ESPOO)", "address": "C/O AALTO-YLIOPISTO, PL 31000, 00076 AALTO", "website": "", "location": {"lat": "60.185552", "lng": "24.824479"}, "lunchUrl": "", "type": "other"}, {"title": "LOUNASRAVINTOLA/KAHVILA SUOLAHEIN\u00c4", "address": "KARVASM\u00c4ENTIE 4-6, 02740 ESPOO", "website": "", "location": {"lat": "60.221891", "lng": "24.683864"}, "lunchUrl": "", "type": "other"}, {"title": "METROPOLIA AMMATTIKORKEAKOULU (3208)", "address": "KARAKAARENKUJA 6, 02610 ESPOO", "website": "", "location": {"lat": "60.221227", "lng": "24.804911"}, "lunchUrl": "", "type": "other"}, {"title": "RAVINTOLA LAUREA OTANIEMEN KAMPUS", "address": "METS\u00c4NPOJANKUJA 3, 02130 ESPOO", "website": "", "location": {"lat": "60.186017", "lng": "24.805703"}, "lunchUrl": "", "type": "other"}, {"title": "STUDIO KIPSARI", "address": "OTAKAARI 7, 02150 ESPOO", "website": "", "location": {"lat": "60.188962", "lng": "24.833545"}, "lunchUrl": "", "type": "other"}, {"title": "TEKNOLOGF\u00d6RENINGEN", "address": "OTSV\u00c4NGEN 22, 02150 ESPOO", "website": "http://www.teknologforeningen.fi", "location": {"lat": "60.186109", "lng": "24.833094"}, "lunchUrl": "", "type": "other"}, {"title": "TUAS-TALO/AALTO YLIOPISTO (0199)", "address": "MAARINTIE 8, 02150 ESPOO", "website": "https://www.foodandco.fi/ravintolat/Ravintolat-kaupungeittain/espoo/aalto-yliopisto-tuas/", "location": {"lat": "60.1871687", "lng": "24.8187701805001"}, "lunchUrl": "ravintolatkartalla_menus/192.json", "type": "fazer"}, {"title": "TV\u00c4RMINNEN EL\u00c4INTIETEELLINEN AS.", "address": "J.A. PALM\u00c9NIN TIE 260, 10900 HANKO", "website": "http://rontti.helsinki.fi/tvea/", "location": {"lat": "59.844429", "lng": "23.248894"}, "lunchUrl": "", "type": "other"}, {"title": "ALPPICA/HDL (2123)", "address": "ALPPIKATU 2, 00530 HELSINKI", "website": "http://www.amica.fi/diakonissalaitos", "location": {"lat": "60.1857562", "lng": "24.9468756"}, "lunchUrl": "", "type": "fazer"}, {"title": "ARCADA/YRKESH\u00d6GSKOLAN ARCADA (3003)", "address": "JAN-MAGNUS JANSSONSPLATS 1, 00550 HELSINKI", "website": "http://www.amica.fi/arcada", "location": {"lat": "60.20139", "lng": "24.96491"}, "lunchUrl": "", "type": "fazer"}, {"title": "AURORAN SAIRAALA, RAVINTOLA (9535200002)", "address": "NORDENSKI\u00d6LDINKATU 20, 00250 HELSINKI", "website": "https://www.hel.fi/palvelukeskus/fi/ateriapalvelut/", "location": {"lat": "60.191845", "lng": "24.924373"}, "lunchUrl": "", "type": "other"}, {"title": "BIOMEDICUMIN PALVELUKEITTI\u00d6", "address": "HAARTMANINKATU 8, 00029 HUS", "website": "", "location": null, "lunchUrl": "", "type": "other"}, {"title": "CAF\u00e9 FEENIKS", "address": "POHJOINEN RAUTATIEKATU 9, 00100 HELSINKI", "website": "", "location": {"lat": "60.17170765", "lng": "24.9324090039559"}, "lunchUrl": "", "type": "other"}, {"title": "CAFE KORONA", "address": "VIIKINKAARI 11, 00790 HELSINKI", "website": "", "location": {"lat": "60.227521", "lng": "25.012895"}, "lunchUrl": "", "type": "other"}, {"title": "DIAK KALASATAMA KAMPUS/DIAKONIA AMK(3104)", "address": "KYL\u00c4SAARENKUJA 2, 00580 HELSINKI", "website": "http://www.foodandco.fi/diak-kalasatama", "location": {"lat": "60.1990818", "lng": "24.9692110270128"}, "lunchUrl": "", "type": "fazer"}, {"title": "FOOD&CO ARABIANRANTA", "address": "H\u00c4MEENTIE 135 A, 00560 HELSINKI", "website": "https://www.compass-group.fi/", "location": {"lat": "60.2089243", "lng": "24.9774312"}, "lunchUrl": "", "type": "other"}, {"title": "HELSINGIN YLIOPISTON P\u00c4\u00c4RAKENNUS", "address": "YLIOPISTONKATU 2, 00100 HELSINKI", "website": "http://www.sodexo.fi", "location": {"lat": "60.1697703", "lng": "24.9496544"}, "lunchUrl": "", "type": "other"}, {"title": "HERTTONIEMEN SAIRAALA, RAVINTOLA (9535200001)", "address": "KETTUTIE 8, 00800 HELSINKI", "website": "https://www.hel.fi/palvelukeskus/fi/ateriapalvelut/", "location": {"lat": "60.207015", "lng": "25.037596"}, "lunchUrl": "", "type": "other"}, {"title": "IHO- JA ALLERGIASAIRAALA, PALVELUKEITTI\u00d6", "address": "MEILAHDENTIE 2, 3 KRS, 00029 HUS", "website": "", "location": null, "lunchUrl": "", "type": "other"}, {"title": "JAKELUPISTE BISTRO/OPETUSTALO", "address": "RATAPIHANTIE 13, 00520 HELSINKI", "website": "https://www.foodandco.fi/ravintolat/Ravintolat-kaupungeittain/helsinki/opetustalo---paaraide/", "location": {"lat": "60.201785", "lng": "24.933958"}, "lunchUrl": "ravintolatkartalla_menus/205.json", "type": "fazer"}, {"title": "KIRURGISEN SAIRAALAN PALVELUKEITTI\u00d6", "address": "KASARMIKATU 11-13, 00130 HELSINKI", "website": "", "location": {"lat": "60.161658", "lng": "24.949456"}, "lunchUrl": "", "type": "other"}, {"title": "KIVEL\u00c4N RAVINTOKESKUS", "address": "SIBELIUKSENKATU 14, RAK. 6 (PL 9512), 00260 HELSINKI", "website": "https://www.hel.fi/palvelukeskus/fi/ateriapalvelut/", "location": {"lat": "60.180582", "lng": "24.917420"}, "lunchUrl": "", "type": "other"}, {"title": "KOSKELAN MONIPUOLINEN PALVELUKESKUS", "address": "K\u00c4PYL\u00c4NTIE 11, 00600 HELSINKI", "website": "https://www.hel.fi/palvelukeskus/fi/ateriapalvelut/", "location": {"lat": "60.216431", "lng": "24.961613"}, "lunchUrl": "", "type": "other"}, {"title": "LAAKSON SAIRAALA, RAVINTOLA (9535200002)", "address": "L\u00c4\u00c4K\u00c4RINKATU 8, 00250 HELSINKI", "website": "https://www.hel.fi/palvelukeskus/fi/ateriapalvelut/", "location": {"lat": "60.190768", "lng": "24.918705"}, "lunchUrl": "", "type": "other"}, {"title": "MALMICA / PERHO LIIKETALOUSOPISTO (3092)", "address": "HIETAKUMMUNTIE 1 A, 00700 HELSINKI", "website": "http://www.amica.fi/malmica", "location": {"lat": "60.2495312", "lng": "25.0127391"}, "lunchUrl": "", "type": "fazer"}, {"title": "MALMIN SAIRAALA, RAVINTOLA (9535200004)", "address": "TALVELANTIE 6, 00700 HELSINKI", "website": "https://www.hel.fi/palvelukeskus/fi/ateriapalvelut/", "location": {"lat": "60.252504", "lng": "24.997104"}, "lunchUrl": "", "type": "other"}, {"title": "MEILAHTI, RUOKAPALVELUT", "address": "STENB\u00c4CKINKATU 9, 00029 HUS", "website": "", "location": null, "lunchUrl": "", "type": "other"}, {"title": "METROPOLIA MYLLYPURO", "address": "MYLLYPURONTIE 1, 00920 HELSINKI", "website": "", "location": {"lat": "60.223581", "lng": "25.078368"}, "lunchUrl": "", "type": "other"}, {"title": "METROPOLIA VANHA VIERTOTIE", "address": "VANHA VIIERTOTIE 23, 00350 HELSINKI", "website": "http://www.sodexo.fi", "location": {"lat": "60.219822", "lng": "24.956449"}, "lunchUrl": "", "type": "other"}, {"title": "MUSIIKKITALON RAVINTOLA", "address": "MANNERHEIMINTIE 13 A, A, 00100 HELSINKI", "website": "", "location": {"lat": "60.173535", "lng": "24.934984"}, "lunchUrl": "", "type": "other"}, {"title": "OSAKUNTABAARI", "address": "URHO KEKKOSEN KATU 4-6 D, 00100 HELSINKI", "website": "http://www.hamalais-osakunta.fi", "location": {"lat": "60.168438", "lng": "24.933006"}, "lunchUrl": "", "type": "other"}, {"title": "P\u00c4\u00c4RAIDE/OPETUSTALO (0083)", "address": "RAUTATIEL\u00c4ISENKATU 5, 00520 HELSINKI", "website": "https://www.foodandco.fi/ravintolat/Ravintolat-kaupungeittain/helsinki/opetustalo---paaraide/", "location": {"lat": "60.2018773", "lng": "24.9353841"}, "lunchUrl": "ravintolatkartalla_menus/217.json", "type": "fazer"}, {"title": "RAVINTOLA CAFFELI (3407)", "address": "PAJUNIITYNTIE 11, 00320 HELSINKI", "website": null, "location": {"lat": "60.2179279", "lng": "24.9065251"}, "lunchUrl": "ravintolatkartalla_menus/218.json", "type": "fazer"}, {"title": "RAVINTOLA KONSERVATORIO", "address": "RUOHOLAHDENTORI 6, 00180 HELSINKI", "website": "https://ruoka.palmia.fi/fi/", "location": {"lat": "60.162199", "lng": "24.914835"}, "lunchUrl": "", "type": "other"}, {"title": "RAVINTOLA LADONLUKKO (FI119179)", "address": "LATOKARTANONKAARI 9, 00790 HELSINKI", "website": "http://www.sodexo.fi", "location": {"lat": "60.229015", "lng": "25.019107"}, "lunchUrl": "", "type": "other"}, {"title": "RAVINTOLA LUOVA", "address": "H\u00c4MEENTIE 135 D, 00560 HELSINKI", "website": "", "location": {"lat": "60.209558", "lng": "24.976272"}, "lunchUrl": "", "type": "other"}, {"title": "RAVINTOLA PERHON HELMI", "address": "VANHA HELSINGINTIE 13, 00700 HELSINKI", "website": "", "location": {"lat": "60.2439229", "lng": "25.0146529"}, "lunchUrl": "", "type": "other"}, {"title": "RAVINTOLA SERPENS (YTHS)", "address": "T\u00d6\u00d6L\u00d6NKATU 37 A, 00260 HELSINKI", "website": "", "location": {"lat": "60.182152", "lng": "24.923091"}, "lunchUrl": "", "type": "other"}, {"title": "RAVINTOLA TEMPO", "address": "NERVANDERINKATU 13, 00100 HELSINKI", "website": "https://www.compass-group.fi/", "location": {"lat": "60.1739103", "lng": "24.9285928"}, "lunchUrl": "", "type": "other"}, {"title": "RAVINTOLA T\u00d6\u00d6L\u00d6 37 (3704)", "address": "T\u00d6\u00d6L\u00d6NKATU 37 A, 00260 HELSINKI", "website": "", "location": {"lat": "60.182152", "lng": "24.923091"}, "lunchUrl": "", "type": "other"}, {"title": "RAVINTOLA VALKEA TALO", "address": "ILKANTIE 4, 00401 HELSINKI", "website": "https://www.delicatessen.fi/", "location": {"lat": "60.2216162", "lng": "24.9020111"}, "lunchUrl": "", "type": "other"}, {"title": "SUURSUON SAIRAALA, RAVINTOLA (9535200003)", "address": "SUURSUONLAITA 3 B, 00630 HELSINKI", "website": "https://www.hel.fi/palvelukeskus/fi/ateriapalvelut/", "location": {"lat": "60.234866", "lng": "24.932236"}, "lunchUrl": "", "type": "other"}, {"title": "SVENSKA HANDELSH\u00d6GSKOLAN (3406)", "address": "ARKADIANKATU 22, 00100 HELSINKI", "website": "https://www.foodandco.fi/hanken", "location": {"lat": "60.171134", "lng": "24.92434"}, "lunchUrl": "", "type": "fazer"}, {"title": "TEATTERIKORKEAKOULU (3067)", "address": "HAAPANIEMENKATU 6, 00530 HELSINKI", "website": "http://www.foodandco.fi/teatterikorkeakoulu", "location": {"lat": "60.181369", "lng": "24.959156"}, "lunchUrl": "", "type": "fazer"}, {"title": "T\u00c4HK\u00c4/ HELSINGIN YLIOPISTO (0061)", "address": "KOETILANTIE 7, 00790 HELSINKI", "website": "http://www.amica.fi/tahka", "location": {"lat": "60.2229983", "lng": "25.0193053"}, "lunchUrl": "", "type": "fazer"}, {"title": "T\u00d6\u00d6L\u00d6N SAIRAALA, RUOKAPALVELUT", "address": "TOPELIUKSENKATU 5, 00029 HUS", "website": "", "location": null, "lunchUrl": "", "type": "other"}, {"title": "Biokeskus", "address": "VIIKINKAARI 9, 00790 HELSINKI", "website": "https://unicafe.fi/wp-json/swiss/v1/restaurants?lang=fi", "location": {"lat": "60.227092", "lng": "25.014835"}, "lunchUrl": "ravintolatkartalla_menus/unicafe.json", "type": "unicafe"}, {"title": "Chemicum", "address": "A. I. VIRTASEN AUKIO 1, 00560 HELSINKI", "website": "https://unicafe.fi/wp-json/swiss/v1/restaurants?lang=fi", "location": {"lat": "60.2056", "lng": "24.96395"}, "lunchUrl": "ravintolatkartalla_menus/unicafe.json", "type": "unicafe"}, {"title": "Exactum", "address": "GUSTAF H\u00c4LLSTR\u00d6MIN KATU 2, 00560 HELSINKI", "website": "https://unicafe.fi/wp-json/swiss/v1/restaurants?lang=fi", "location": {"lat": "60.204898", "lng": "24.962891"}, "lunchUrl": "ravintolatkartalla_menus/unicafe.json", "type": "unicafe"}, {"title": "Kaivopiha", "address": "MANNERHEIMINTIE 3 B, 00100 HELSINKI", "website": "https://unicafe.fi/wp-json/swiss/v1/restaurants?lang=fi", "location": {"lat": "60.16918", "lng": "24.940796"}, "lunchUrl": "ravintolatkartalla_menus/unicafe.json", "type": "unicafe"}, {"title": "Meilahti", "address": "HAARTMANINKATU 3, 00290 HELSINKI", "website": "https://unicafe.fi/wp-json/swiss/v1/restaurants?lang=fi", "location": {"lat": "60.190516", "lng": "24.909503"}, "lunchUrl": "ravintolatkartalla_menus/unicafe.json", "type": "unicafe"}, {"title": "Mets\u00e4talo", "address": "FABIANINKATU 39, 00170 HELSINKI", "website": "https://unicafe.fi/wp-json/swiss/v1/restaurants?lang=fi", "location": {"lat": "60.172652", "lng": "24.949307"}, "lunchUrl": "ravintolatkartalla_menus/unicafe.json", "type": "unicafe"}, {"title": "Olivia", "address": "SILTAVUORENPENGER 20 R, 00170 HELSINKI", "website": "https://unicafe.fi/wp-json/swiss/v1/restaurants?lang=fi", "location": {"lat": "60.175088", "lng": "24.954732"}, "lunchUrl": "ravintolatkartalla_menus/unicafe.json", "type": "unicafe"}, {"title": "Physicum", "address": "GUSTAF H\u00c4LLSTR\u00d6MIN KATU 2, 00560 HELSINKI", "website": "https://unicafe.fi/wp-json/swiss/v1/restaurants?lang=fi", "location": {"lat": "60.204898", "lng": "24.962891"}, "lunchUrl": "ravintolatkartalla_menus/unicafe.json", "type": "unicafe"}, {"title": "Cafe Portaali", "address": "YLIOPISTONKATU 3, 00170 HELSINKI", "website": "https://unicafe.fi/wp-json/swiss/v1/restaurants?lang=fi", "location": {"lat": "60.1700753", "lng": "24.9489119"}, "lunchUrl": "ravintolatkartalla_menus/unicafe.json", "type": "unicafe"}, {"title": "Rotunda", "address": "UNIONINKATU 36, 00170 HELSINKI", "website": "https://unicafe.fi/wp-json/swiss/v1/restaurants?lang=fi", "location": {"lat": "60.170336", "lng": "24.950163"}, "lunchUrl": "ravintolatkartalla_menus/unicafe.json", "type": "unicafe"}, {"title": "Soc&Kom", "address": "SNELLMANNINKATU 12, 00170 HELSINKI", "website": "https://unicafe.fi/wp-json/swiss/v1/restaurants?lang=fi", "location": {"lat": "60.1729842", "lng": "24.9527106"}, "lunchUrl": "ravintolatkartalla_menus/unicafe.json", "type": "unicafe"}, {"title": "Pesco & Vege Topelias", "address": "UNIONINKATU 38, 00170 HELSINKI", "website": "https://unicafe.fi/wp-json/swiss/v1/restaurants?lang=fi", "location": {"lat": "60.170898", "lng": "24.950248"}, "lunchUrl": "ravintolatkartalla_menus/unicafe.json", "type": "unicafe"}, {"title": "Viikuna", "address": "AGNES SJ\u00d6BERGIN KATU 2, 00790 HELSINKI", "website": "https://unicafe.fi/wp-json/swiss/v1/restaurants?lang=fi", "location": {"lat": "60.229565", "lng": "25.021493"}, "lunchUrl": "ravintolatkartalla_menus/unicafe.json", "type": "unicafe"}, {"title": "HYVINK\u00c4\u00c4N SAIRAALAN LOUNASRAVINTOLA", "address": "SAIRAALANKATU 1, 05850 HYVINK\u00c4\u00c4", "website": "", "location": {"lat": "60.609551", "lng": "24.8322"}, "lunchUrl": "", "type": "other"}, {"title": "RAVINTOLA LAUREA HYVINK\u00c4\u00c4N KAMPUS", "address": "UUDENMAANKATU 22, 05800 HYVINK\u00c4\u00c4", "website": "", "location": {"lat": "60.626195", "lng": "24.855086"}, "lunchUrl": "", "type": "other"}, {"title": "ATERIAKEIDAS, KEUDA", "address": "SIBELIUKSENV\u00c4YL\u00c4 55, 04400 J\u00c4RVENP\u00c4\u00c4", "website": "", "location": {"lat": "60.460045", "lng": "25.082904"}, "lunchUrl": "", "type": "other"}, {"title": "TY\u00d6V\u00c4EN AKATEMIAN OPISKELIJARAVINTOLA", "address": "VANHA TURUNTIE 14, 02700 KAUNIAINEN", "website": "", "location": {"lat": "60.221622", "lng": "24.716221"}, "lunchUrl": "", "type": "other"}, {"title": "OPISKELIJA- JA TILAUSRAVINTOLA BREIKKI", "address": "KESKIKATU 3 A, 04200 KERAVA", "website": "", "location": {"lat": "60.40533", "lng": "25.100858"}, "lunchUrl": "", "type": "other"}, {"title": "LOHJAN SAIRAALA, RUOKAPALVELUT", "address": "SAIRAALATIE 8, 08200 LOHJA", "website": "", "location": {"lat": "60.223371", "lng": "24.020741"}, "lunchUrl": "", "type": "other"}, {"title": "TOIVONKADUN KAMPUKSEN OPISKELIJARAVINTOLA", "address": "TOIVONKATU 4, 08100 LOHJA", "website": "", "location": {"lat": "60.2475645", "lng": "24.071508917363424"}, "lunchUrl": "", "type": "other"}, {"title": "KEUDA M\u00c4NTS\u00c4L\u00c4, LUSIKKALINNA OP. RAVINTOLA", "address": "PARONINKUJA 20, 04920 SAARENTAUS", "website": "", "location": {"lat": "60.736524", "lng": "25.424627"}, "lunchUrl": "", "type": "other"}, {"title": "KILJAVANRANTA", "address": "KILJAVANRANTA 49, 05250 KILJAVA", "website": "", "location": {"lat": "60.5045", "lng": "24.68988"}, "lunchUrl": "", "type": "other"}, {"title": "PORVOO CAMPUS", "address": "TAIDETEHTAANKATU 1, 06100 PORVOO", "website": "", "location": {"lat": "60.387405", "lng": "25.656318"}, "lunchUrl": "", "type": "other"}, {"title": "PORVOON SAIRAALA, RUOKAPALVELUT", "address": "SAIRAALANTIE 1, 06150 PORVOO", "website": "", "location": {"lat": "60.379256", "lng": "25.693766"}, "lunchUrl": "", "type": "other"}, {"title": "EKEN\u00c4S H\u00d6GSTADIUM/NOVIA", "address": "RASEBORGSV\u00c4GEN 9, 10600 TAMMISAARI", "website": "", "location": {"lat": "59.975020799999996", "lng": "23.451394527406578"}, "lunchUrl": "", "type": "other"}, {"title": "L\u00c4NSI-UUDENMAAN SAIRAANHOITOALUE, RUOKAPALVELUT", "address": "IT\u00c4INEN RANTAKATU 9, 10600 TAMMISAARI", "website": "", "location": {"lat": "59.96792", "lng": "23.442437"}, "lunchUrl": "", "type": "other"}, {"title": "TAMMIHARJUN SAIRAALA", "address": "RAASEPORINTIE 37, 10600 TAMMISAARI", "website": "", "location": {"lat": "59.983413", "lng": "23.476484"}, "lunchUrl": "", "type": "other"}, {"title": "KELLOKOSKEN SAIRAALAN RUOKAPALVELUT", "address": "VANHA VALTATIE 198, 04500 KELLOKOSKI", "website": "", "location": {"lat": "60.532986", "lng": "25.109013"}, "lunchUrl": "", "type": "other"}, {"title": "METROPOLIA LEIRITIE", "address": "LEIRITIE 1, 01600 VANTAA", "website": "http://www.sodexo.fi", "location": {"lat": "60.2583942", "lng": "24.844361"}, "lunchUrl": "", "type": "other"}, {"title": "PEIJAKSEN SAIRAALA, RUOKAPALVELUT", "address": "SAIRAALAKATU 1, 01400 VANTAA", "website": "", "location": {"lat": "60.331232", "lng": "25.059162"}, "lunchUrl": "", "type": "other"}, {"title": "RAVINTOLA LAUREA TIKKURILAN KAMPUS", "address": "RATATIE 22, 01300 VANTAA", "website": "", "location": {"lat": "60.295084", "lng": "25.04373"}, "lunchUrl": "", "type": "other"}, {"title": "TRADERIA/KAUPPIAITTEN KAUPPAOPPILAITOS (3329)", "address": "MARTINLAAKSONTIE 36, 01620 VANTAA", "website": "", "location": {"lat": "60.2750743", "lng": "24.8458749"}, "lunchUrl": "", "type": "other"}, {"title": "ARKEA/LOIMAAN SAIRAALAN HENKIL\u00d6ST\u00d6RAVINTOLA", "address": "SEPP\u00c4L\u00c4NKATU 15, 32200 LOIMAA", "website": "", "location": {"lat": "60.851665", "lng": "23.049063"}, "lunchUrl": "", "type": "other"}, {"title": "AXXELL PARGAS STORK\u00d6K", "address": "VAPPARV\u00c4GEN 4, 21600 PARAINEN", "website": "", "location": {"lat": "60.3101687", "lng": "22.2890611"}, "lunchUrl": "", "type": "other"}, {"title": "KIILA/SALO IOT (3641)", "address": "JOENSUUNKATU 7, 24100 SALO", "website": "https://www.foodandco.fi/ravintolat/Ravintolat-kaupungeittain/salo/salo-iot-campus-ravintolat/", "location": {"lat": "60.3882835", "lng": "23.1148762"}, "lunchUrl": "ravintolatkartalla_menus/266.json", "type": "fazer"}, {"title": "SALON SAIRAALAN RAVINTOLA", "address": "SAIRAALANTIE 9, SALO, 24130 SALO", "website": "", "location": {"lat": "60.375047", "lng": "23.127468"}, "lunchUrl": "", "type": "other"}, {"title": "AMICA/M\u00c4NTYM\u00c4EN RAVINTOKESKUS (0520)", "address": "LUOLAVUORENTIE 2, 20700 TURKU", "website": "http://www.amica.fi/mantymaki", "location": {"lat": "60.4362623", "lng": "22.2745617"}, "lunchUrl": "", "type": "fazer"}, {"title": "ARKEA RAVINTOLA MAKUMESTA/KAHVILA MAKUPALA", "address": "ANNIKANPOLKU 9, 20610 TURKU", "website": "", "location": {"lat": "60.447653", "lng": "22.357426"}, "lunchUrl": "", "type": "other"}, {"title": "ASSARIN ULLAKKO, KASVISRAVINTOLA BRYGGE", "address": "REHTORINPELLONKATU 4 A, 20500 TURKU", "website": "http://www.unica.fi", "location": {"lat": "60.454376", "lng": "22.287168"}, "lunchUrl": "", "type": "other"}, {"title": "AURIGA, PORT CENTER (FI319259)", "address": "JUHANA HERTTUAN PUISTOKATU 21, 20100 TURKU", "website": "http://www.sodexo.fi", "location": {"lat": "60.439573", "lng": "22.226475"}, "lunchUrl": "", "type": "other"}, {"title": "DELICA/DELI", "address": "IT\u00c4INEN PITK\u00c4KATU 4, 20520 TURKU", "website": "http://www.unica.fi", "location": {"lat": "60.44814", "lng": "22.293982"}, "lunchUrl": "", "type": "other"}, {"title": "KASVISRAVINTOLA KEIDAS", "address": "UUDENMAANKATU 3, 20500 TURKU", "website": "", "location": {"lat": "60.449708", "lng": "22.277823"}, "lunchUrl": "", "type": "other"}, {"title": "KIS\u00c4LLI", "address": "JOUKAHAISENKATU 7, 20520 TURKU", "website": "", "location": {"lat": "60.4484699", "lng": "22.2975106"}, "lunchUrl": "", "type": "other"}, {"title": "K\u00c5RKAF\u00e9 ARKEN", "address": "FABRIKSGATAN 2, 20500 TURKU", "website": "http://www.abo.fi/karen/index.php?page=matlistor", "location": {"lat": "60.457293", "lng": "22.279115"}, "lunchUrl": "", "type": "other"}, {"title": "K\u00c5RKAF\u00e9 ASA", "address": "F\u00c4NRIKSGATAN 3, 20500 TURKU", "website": "http://www.abo.fi/karen/index.php?page=matlistor", "location": {"lat": "60.456748", "lng": "22.281955"}, "lunchUrl": "", "type": "other"}, {"title": "K\u00c5RKAF\u00e9 AURUM", "address": "HENRIKSGATAN 2, 20500 TURKU", "website": "http://www.abo.fi/karen/index.php?page=matlistor", "location": {"lat": "60.4547917", "lng": "22.2823905"}, "lunchUrl": "", "type": "other"}, {"title": "K\u00c5RKAF\u00e9 K\u00c5REN", "address": "TAVASTGATAN 22, 20500 TURKU", "website": "http://www.abo.fi/karen/index.php?page=matlistor", "location": {"lat": "60.44954", "lng": "22.275627"}, "lunchUrl": "", "type": "other"}, {"title": "MACCIAVELLI", "address": "ASSISTENTINKATU 5, 20500 TURKU", "website": "http://www.unica.fi", "location": {"lat": "60.458023", "lng": "22.285576"}, "lunchUrl": "", "type": "other"}, {"title": "MEDISIINA D/FLAVORIA", "address": "KIINAMYLLYNKATU 10, 20520 TURKU", "website": "", "location": {"lat": "60.452022", "lng": "22.292381"}, "lunchUrl": "", "type": "other"}, {"title": "MONTTU JA MERCATORI", "address": "REHTORINPELLONKATU 3, 20360 TURKU", "website": "http://www.unica.fi", "location": {"lat": "60.45461415", "lng": "22.289450049491094"}, "lunchUrl": "", "type": "other"}, {"title": "MUUSA", "address": "LINNANKATU 54, 20100 TURKU", "website": "", "location": {"lat": "60.440233", "lng": "22.243739"}, "lunchUrl": "", "type": "other"}, {"title": "OPISKELIJARAVINTOLA DATACITY (AMISTOTELES)", "address": "LEMMINK\u00c4ISENKATU 14-18 B, 20520 TURKU", "website": "http://www.turkuai.fi", "location": {"lat": "60.44844", "lng": "22.294499"}, "lunchUrl": "", "type": "other"}, {"title": "RAVINTOLA DENTAL", "address": "LEMMINK\u00c4ISENKATU 2, 20520 TURKU", "website": "http://www.unica.fi", "location": {"lat": "60.450404", "lng": "22.292652"}, "lunchUrl": "", "type": "other"}, {"title": "RAVINTOLA ELO", "address": "INSPEHTORINKATU 12, 20540 TURKU", "website": "", "location": {"lat": "60.4628944", "lng": "22.2888163"}, "lunchUrl": "", "type": "other"}, {"title": "RAVINTOLA GALILEI", "address": "VESILINNANTIE 3, 20500 TURKU", "website": "http://www.unica.fi", "location": {"lat": "60.454227", "lng": "22.284796"}, "lunchUrl": "", "type": "other"}, {"title": "RAVINTOLA LINUS", "address": "JOUKAHAISENKATU 3, 20500 TURKU", "website": "", "location": {"lat": "60.449447", "lng": "22.295165"}, "lunchUrl": "", "type": "other"}, {"title": "RAVINTOLA OLD MILL (FI318478)", "address": "RUUKINKATU 2-4, 20540 TURKU", "website": "http://www.sodexo.fi", "location": {"lat": "60.453681", "lng": "22.302793"}, "lunchUrl": "", "type": "other"}, {"title": "RAVINTOLA WANHA TALLI", "address": "HARJATTULANTIE 80, 20960 TURKU", "website": "http://www.paasikiviopisto.net", "location": {"lat": "60.371798", "lng": "22.29125"}, "lunchUrl": "", "type": "other"}, {"title": "SIGYN", "address": "LINNANKATU 60, 20100 TURKU", "website": "", "location": {"lat": "60.438273", "lng": "22.238643"}, "lunchUrl": "", "type": "other"}, {"title": "T-HENKIL\u00d6ST\u00d6RAVINTOLA SAVIRUUKKU", "address": "H\u00c4MEENTIE 11, TURKU, 20520 TURKU", "website": "", "location": {"lat": "60.4540688", "lng": "22.2957061038067"}, "lunchUrl": "", "type": "other"}, {"title": "TURUN AMK/LEMMINK\u00c4ISENKATU (FI319182)", "address": "LEMMINK\u00c4ISENKATU 30, 20520 TURKU", "website": "http://www.sodexo.fi", "location": {"lat": "60.447342", "lng": "22.299923"}, "lunchUrl": "", "type": "other"}, {"title": "TURUNMAAN SAIRAALA", "address": "KASKENKATU 13, TURKU, 20700 TURKU", "website": "", "location": {"lat": "60.444629", "lng": "22.274612"}, "lunchUrl": "", "type": "other"}, {"title": "U-HENKIL\u00d6ST\u00d6RAVINTOLA", "address": "KIINAMYLLYNKATU 1-4, TURKU, 20500 TURKU", "website": "", "location": {"lat": "60.4524946", "lng": "22.2879674"}, "lunchUrl": "", "type": "other"}, {"title": "UNICAN KULMA", "address": "BRAHENKATU 2, 20100 TURKU", "website": "http://www.unica.fi", "location": {"lat": "60.4513809", "lng": "22.2720002"}, "lunchUrl": "", "type": "other"}, {"title": "VAKKA-SUOMEN SAIRAALAN RAVINTOLA", "address": "TERVEYSTIE 2, UUSIKAUPUNKI, 23500 UUSIKAUPUNKI", "website": "", "location": {"lat": "60.7968992", "lng": "21.4239351"}, "lunchUrl": "", "type": "other"}]