[{"id":4576,"title":"T\u00e4hk\u00e4","slug":"tahka","permalink":"https:\/\/unicafe.fi\/restaurants\/tahka\/","location":[{"id":47,"name":"Viikki"}],"address":"Koetilantie 7, 00790 Helsinki","visitingHours":null,"blocksHtml":"","menuData":{"areacode":5,"name":"T\u00e4hk\u00e4","id":47,"phone":null,"email":"tahka@unicafe.fi","feedback_address":"https:\/\/smiley.link\/DJXGGJCC","description":"Esteett\u00f6myys<br \/>- sis\u00e4\u00e4nk\u00e4ynti : esteet\u00f6n sis\u00e4\u00e4nk\u00e4ynti p\u00e4\u00e4ovesta, py\u00f6r\u00e4tuolireitti kiinte\u00e4\u00e4 luiskaa pitkin.<br \/>- inva-wc ulko-ovesta vesemmalla aulatilassa.","visitingHours":{"business":{"name":null,"items":[{"closedException":false,"label":"Ma\u2013Pe","hours":"08:00\u201314:00"},{"closedException":false,"label":"La\u2013Su","hours":"Suljettu"},{"exceptionUndefinedTime":false,"label":"Ma-Su","hours":"Suljettu"},{"exception":true,"label":"30.6.\u201324.8.","hours":"Suljettu"}]},"breakfast":false,"bistro":false,"lounas":{"name":null,"items":[{"closedException":true,"label":"Ma\u2013Pe","hours":"10:30\u201313:30"},{"closedException":true,"label":"La\u2013Su","hours":"Suljettu"},{"exception":true,"label":"30.6.\u201324.8.","hours":"Suljettu"}]}},"menus":[{"data":[],"date":"Ma 28.07.","message":null},{"data":[],"message":null,"date":"Ti 29.07."},{"data":[],"date":"Ke 30.07.","message":null},{"date":"To 31.07.","message":null,"data":[]},{"data":[],"message":null,"date":"Pe 01.08."},{"date":"La 02.08.","message":null,"data":[]},{"date":"Su 03.08.","message":null,"data":[]},{"data":[],"date":"Ma 04.08.","message":null},{"date":"Ti 05.08.","message":null,"data":[]},{"date":"Ke 06.08.","message":null,"data":[]},{"data":[],"date":"To 07.08.","message":null},{"message":null,"date":"Pe 08.08.","data":[]},{"date":"La 09.08.","message":null,"data":[]},{"message":null,"date":"Su 10.08.","data":[]}]}},{"id":4573,"title":"Biokeskus 2","slug":"biokeskus-3","permalink":"https:\/\/unicafe.fi\/restaurants\/biokeskus-3\/","location":[{"id":47,"name":"Viikki"}],"address":"Viikinkaari 5, 00790 Helsinki","visitingHours":null,"blocksHtml":"","menuData":{"id":46,"areacode":5,"name":"Biokeskus 2","phone":"+358 50 475 5571 (kahvila)","email":"biokeskus@unicafe.fi","feedback_address":null,"description":"Esteett\u00f6myys<br \/>- sis\u00e4\u00e4nk\u00e4ynti: p\u00e4\u00e4ovesta, Biokeskus 1.<br \/>- inva-wc.","visitingHours":{"business":{"name":null,"items":[{"closedException":true,"label":"Ma\u2013Pe","hours":"\u2013"},{"closedException":true,"label":"La\u2013Su","hours":"Suljettu"},{"exception":true,"label":"29.5.\u201324.8.","hours":"Suljettu"}]},"breakfast":false,"bistro":false,"lounas":{"name":null,"items":[{"closedException":true,"label":"Ma\u2013Pe","hours":"\u2013"},{"closedException":true,"label":"La\u2013Su","hours":"Suljettu"},{"exceptionUndefinedTime":true,"label":"Ma-Su","hours":"Suljettu"}]}},"menus":[{"message":null,"date":"Ma 28.07.","data":[]},{"date":"Ti 29.07.","message":null,"data":[]},{"data":[],"message":null,"date":"Ke 30.07."},{"date":"To 31.07.","message":null,"data":[]},{"message":null,"date":"Pe 01.08.","data":[]},{"data":[],"date":"La 02.08.","message":null},{"data":[],"message":null,"date":"Su 03.08."},{"date":"Ma 04.08.","message":null,"data":[]},{"data":[],"message":null,"date":"Ti 05.08."},{"data":[],"message":null,"date":"Ke 06.08."},{"date":"To 07.08.","message":null,"data":[]},{"data":[],"date":"Pe 08.08.","message":null},{"message":null,"date":"La 09.08.","data":[]},{"data":[],"message":null,"date":"Su 10.08."}]}},{"id":4516,"title":"Infokeskus alakerta","slug":"infokeskus-alakerta","permalink":"https:\/\/unicafe.fi\/restaurants\/infokeskus-alakerta\/","location":[{"id":47,"name":"Viikki"}],"address":"Viikinkaari 11, 00790 Helsinki","visitingHours":null,"blocksHtml":"","menuData":{"areacode":5,"name":"Infokeskus alakerta","id":45,"phone":null,"email":"infokeskus@unicafe.fi","feedback_address":"https:\/\/smiley.link\/DVVSFMNP","description":"Esteett\u00f6myys<br \/>- sis\u00e4\u00e4nk\u00e4ynti : esteet\u00f6n sis\u00e4\u00e4nk\u00e4ynti pihalta p\u00e4\u00e4oven kautta.<br \/>- inva wc: kirjaston k\u00e4yt\u00e4v\u00e4ll\u00e4, lis\u00e4tietoa vahtimestarilta","visitingHours":{"business":{"name":null,"items":[{"closedException":true,"label":"Ma\u2013Pe","hours":"10:30\u201314:00"},{"closedException":true,"label":"La\u2013Su","hours":"Suljettu"},{"exception":true,"label":"29.5.\u201324.8.","hours":"Suljettu"}]},"breakfast":false,"bistro":false,"lounas":{"name":null,"items":[{"closedException":false,"label":"Ma\u2013Pe","hours":"10:30\u201314:00"},{"closedException":false,"label":"La\u2013Su","hours":"Suljettu"},{"exceptionUndefinedTime":false,"label":"Ma-Su","hours":"Suljettu"}]}},"menus":[{"date":"Ma 28.07.","message":null,"data":[]},{"date":"Ti 29.07.","message":null,"data":[]},{"data":[],"message":null,"date":"Ke 30.07."},{"message":null,"date":"To 31.07.","data":[]},{"data":[],"message":null,"date":"Pe 01.08."},{"data":[],"date":"La 02.08.","message":null},{"message":null,"date":"Su 03.08.","data":[]},{"data":[],"message":null,"date":"Ma 04.08."},{"message":null,"date":"Ti 05.08.","data":[]},{"date":"Ke 06.08.","message":null,"data":[]},{"date":"To 07.08.","message":null,"data":[]},{"date":"Pe 08.08.","message":null,"data":[]},{"data":[],"date":"La 09.08.","message":null},{"data":[],"date":"Su 10.08.","message":null}]}},{"id":4377,"title":"My\u00f6h\u00e4 Caf\u00e9 & Bar","slug":"myoha","permalink":"https:\/\/unicafe.fi\/restaurants\/myoha\/","location":[{"id":44,"name":"Keskusta"}],"address":"Mannerheimintie 3","visitingHours":null,"blocksHtml":"","menuData":{"id":44,"name":"My\u00f6h\u00e4 Cafe & Bar","areacode":1,"phone":"Ravintola: +358 50 573 7066 Ravintolap\u00e4\u00e4llikk\u00f6: +358 45 879 1059","email":"myoha@ylva.fi","feedback_address":"https:\/\/smiley.link\/HHTXBRPG","description":"Ravintola sijaitsee Kaivok\u00e4yt\u00e4v\u00e4ll\u00e4. <br \/>- Py\u00f6r\u00e4tuolireitti Kaivopihan puolelta<br \/>- Yhteiset wc-tilat sijaitsevat Kaivok\u00e4yt\u00e4v\u00e4ll\u00e4","visitingHours":{"business":{"name":null,"items":[{"closedException":true,"label":"Ma","hours":"11:00\u201315:00"},{"closedException":true,"label":"Ti\u2013To","hours":"11:00\u201322:00"},{"closedException":true,"label":"Pe","hours":"11:00\u201302:00"},{"closedException":true,"label":"La","hours":"16:00\u201302:00"},{"closedException":true,"label":"Su","hours":"Suljettu"},{"exception":true,"label":"14.6.\u201324.8.","hours":"Suljettu"},{"exceptionUndefinedTime":false,"label":"Ma-Su","hours":"Suljettu"},{"exceptionUndefinedTime":false,"label":"Ma-Su","hours":"Suljettu"},{"exceptionUndefinedTime":false,"label":"Ma-Su","hours":"Suljettu"},{"exceptionUndefinedTime":false,"label":"Ma-Su","hours":"Suljettu"}]},"breakfast":false,"bistro":false,"lounas":{"name":null,"items":[{"closedException":true,"label":"Ma\u2013Pe","hours":"11:00\u201314:00"},{"closedException":true,"label":"La\u2013Su","hours":"Suljettu"},{"exception":true,"label":"14.6.\u201324.8.","hours":"Suljettu"},{"exceptionUndefinedTime":false,"label":"Ma-Su","hours":"Suljettu"},{"exceptionUndefinedTime":false,"label":"Ma-Su","hours":"Suljettu"},{"exceptionUndefinedTime":false,"label":"Ma-Su","hours":"Suljettu"}]}},"menus":[{"data":[],"date":"Ma 28.07.","message":null},{"data":[],"date":"Ti 29.07.","message":null},{"data":[],"date":"Ke 30.07.","message":null},{"data":[],"message":null,"date":"To 31.07."},{"data":[],"date":"Pe 01.08.","message":null},{"data":[],"date":"La 02.08.","message":null},{"data":[],"message":null,"date":"Su 03.08."},{"data":[],"date":"Ma 04.08.","message":null},{"data":[],"message":null,"date":"Ti 05.08."},{"data":[],"date":"Ke 06.08.","message":null},{"date":"To 07.08.","message":null,"data":[]},{"message":null,"date":"Pe 08.08.","data":[]},{"date":"La 09.08.","message":null,"data":[]},{"data":[],"message":null,"date":"Su 10.08."}]}},{"id":2543,"title":"Kaivopiha","slug":"kaivopiha","permalink":"https:\/\/unicafe.fi\/restaurants\/kaivopiha\/","location":[{"id":44,"name":"Keskusta"}],"address":"Mannerheimintie 3","visitingHours":"1","blocksHtml":"","menuData":{"id":9,"areacode":1,"name":"Kaivopiha","phone":"+358 50 557 6051 (keitti\u00f6mestari)                                     +358 503450730 (vuorop\u00e4\u00e4llikk\u00f6) +358504778755 (ravintolap\u00e4\u00e4llikk\u00f6)","email":"Kaivopiha@unicafe.fi","feedback_address":"https:\/\/smiley.link\/RNNNBKJP","description":"Esteett\u00f6mys<br \/>- sis\u00e4\u00e4nk\u00e4ynti: Kaivopiha 10 C, hissi<br \/>- inva-wc : on","visitingHours":{"business":{"name":null,"items":[{"closedException":false,"label":"Ma\u2013Pe","hours":"11:00\u201317:00"},{"closedException":false,"label":"La\u2013Su","hours":"Suljettu"},{"exception":true,"label":"23.6.\u20138.8.","hours":"11:00\u201317:00"},{"exceptionUndefinedTime":false,"label":"Ma-Su","hours":"Suljettu"},{"exceptionUndefinedTime":false,"label":"Ma-Su","hours":"Suljettu"},{"exceptionUndefinedTime":false,"label":"Ma-Su","hours":"Suljettu"},{"exceptionUndefinedTime":false,"label":"Ma-Su","hours":"Suljettu"},{"exceptionUndefinedTime":false,"label":"Ma-Su","hours":"Suljettu"}]},"breakfast":false,"bistro":false,"lounas":{"name":null,"items":[{"closedException":false,"label":"Ma\u2013Pe","hours":"11:00\u201317:00"},{"closedException":false,"label":"La\u2013Su","hours":"Suljettu"},{"exception":true,"label":"23.6.\u20138.8.","hours":"11:00\u201317:00"},{"exceptionUndefinedTime":false,"label":"Ma-Su","hours":"Suljettu"},{"exceptionUndefinedTime":false,"label":"Ma-Su","hours":"Suljettu"},{"exceptionUndefinedTime":false,"label":"Ma-Su","hours":"Suljettu"}]}},"menus":[{"data":[{"ingredients":"KIKHERNETT\u00c4, porkkanaa, riisijauhoa, sipulia, suolaa, korianteria, kuminaa, fenkolia, sitruunankuorta, nostatusainetta E 500, rypsi\u00f6ljy\u00e4.\nPinaatti-tzatziki: KERMAVIILI\u00c4, VALKOSIPULIA, pinaattia, sitruunamehua, suolaa mustapippuria.\nHiilijalanj\u00e4lki: 0, 51 kg CO 2e \/ annos","meta":{"2":[],"1":["maitoa"],"0":["G","L","[S]"]},"sku":"6331","nutrition":"Energiaa 147kcal, hiilihydraattia 19g, rasvaa 5g, proteiinia 6g, suolaa 0, 9g.","name":"Porkkana-falafelpihvit, pinaatti-tzatzikia","price":{"name":"Kaivopiha Vegaani","value":{"normal":"9.30","graduate":"5.55","student_hyy":"2.95","contract":"7.30","graduate_hyy":"5.55","student":"2.95"}}},{"sku":"6852","nutrition":"Energiaa 143kcal (597kJ), hiilihydraattia 15, 9g, rasvaa 7g, proteiinia 4 g, suolaa 0, 45g.","name":"Vege-Rendang","price":{"value":{"graduate_hyy":"5.55","student":"2.95","student_hyy":"2.95","contract":"7.30","graduate":"5.55","normal":"9.30"},"name":"Kaivopiha Vegaani"},"ingredients":"Kookosmaito (Kookosuute, vesi, stabilointiaine (E 466), emulgointiaine (E 435), hapettumisenestoaine (sitruunahappo).), Sipuli, Kikherne, Papusekoitus (rehydratoidut kuivatut pavut (punainen kidneypapu, ruskea papu (borlotti), voipapu, valkoinen papu (tondini),, hapettumisenestoaine (E 300)), KAURAJUOMA (Kaurapohja (vesi, t\u00e4ysjyv\u00e4KAURA), rypsi\u00f6ljy, kalsiumkarbonaatti, suola, stabilointiaine (gellaanikumi), riboflaviini (B 2-vitamiini), foolihappo, jodi, D 2-vitamiini, B 12-vitamiini.), Rypsi\u00f6ljy, Sitruunaruohotahna (Sitruunaruoho, vesi, etikka, sokeri, suola, sakeuttamisaine E 415, happamuudens\u00e4\u00e4t\u00f6aine (sitruunahappo), SOIJAPAPU\u00d6LJY.), Chili, Inkiv\u00e4\u00e4ri, tahna (Inkiv\u00e4\u00e4ri, etikka, sokeri, suola, happamuudens\u00e4\u00e4t\u00f6aineet (sitruunahappo, askorbiinihappo).), Fariinisokeri (Sokeri ja ruokosokerisiirappi), Valkosipuli, vesi, sokeri, valkoviinietikka, happamuudens\u00e4\u00e4t\u00f6aine (E 330), s\u00e4il\u00f6nt\u00e4aine (E 211)), Soijakastike (gluteiiniton) (Vesi, SOIJAPROTEIINIHYDROLYSAATTI, suola), Maissit\u00e4rkkelys (maissit\u00e4rkkelys), Suola (Natriumkloridi, kaliumkloridi, magnesiumsulfaatti, lysiinihydrokloridi, paakkuuntumisenestoaine (piioksidi), kaliumjodidi.), Kurkuma, Mustapippuri, Kaffir limetinlehti., Hiilijalanj\u00e4lki: 0, 33 kg CO 2e \/ annos","meta":{"1":["soijaa"],"2":["Ilmastovalinta"],"0":["G","[S]","VE"]}},{"nutrition":"Energiaa 78 kcal (326 kJ), hiilihydraattia 5 g, rasvaa 3, 7 g, proteiinia 6, 3 g, suola 0, 8 g","sku":"1285","name":"Kanakebabia tomaattikastikeessa ja Iskender kastiketta","price":{"value":{"normal":"9.30","graduate":"5.55","contract":"7.30","student_hyy":"2.95","graduate_hyy":"5.55","student":"2.95"},"name":"Kaivopiha P\u00e4iv\u00e4n lounas"},"ingredients":"Kanakebab (broilerinliha (SUOMI), jodioitu suola, hiivauute, maltodekstriini, dekstroosi, valkosipuli, mustapippuri, chili, aromi, aromivahvenne (E 631), stabilointiaineet (E 450, E 451).), sipuli, tomaatti, viinietikka, suola, sokeri, mausteet (mustapippuri, laakerinlehti, oregano)), valkoviinietikka, happamuudens\u00e4\u00e4t\u00f6aine (E 330), s\u00e4il\u00f6nt\u00e4aine (E 211)), chili, maissit\u00e4rkkelys, rypsi\u00f6ljy, sokeri, pansuola, mustapippuri, juustokumina, korianteri, valkopippuri., Iskender kastike : Turkkilainen jogurtti (past\u00f6roitu RASVATON MAITO ja KERMA, RASVATON MAITOJAUHE, hapate.), KERMAVIILI, valkosipuli, sokeri, suola, minttu., Hiilijalanj\u00e4lki: 0, 59 kg CO 2e \/ annos","meta":{"0":["G","L","[S]"],"1":["maitoa"],"2":[]}},{"price":{"value":{"graduate_hyy":"1.50","student":"1.50","contract":"1.50","student_hyy":"1.50","normal":"1.50","graduate":"1.50"},"name":"Makeasti"},"name":"Mansikkarahkaa","nutrition":"Energiaa 142kcal (594kJ), hiilihydraattia 14g, rasvaa 6g, proteiinia 7g.","sku":"1189","meta":{"0":["G","L"],"1":["maitoa"],"2":[]},"ingredients":"Ainesosat: maitorahka (Past\u00f6roitu rasvaton maito, hapate, s\u00e4il\u00f6nt\u00e4aine (E 202), vispikerma (kerma ja stabilointiaine (karrageeni), mansikka, sokeri,"}],"date":"Ma 28.07.","message":null},{"message":null,"date":"Ti 29.07.","data":[]},{"data":[],"date":"Ke 30.07.","message":null},{"message":null,"date":"To 31.07.","data":[]},{"data":[],"date":"Pe 01.08.","message":null},{"message":null,"date":"La 02.08.","data":[]},{"data":[],"date":"Su 03.08.","message":null},{"date":"Ma 04.08.","message":null,"data":[]},{"date":"Ti 05.08.","message":null,"data":[]},{"data":[],"message":null,"date":"Ke 06.08."},{"message":null,"date":"To 07.08.","data":[]},{"message":null,"date":"Pe 08.08.","data":[]},{"data":[],"date":"La 09.08.","message":null},{"data":[],"message":null,"date":"Su 10.08."}]}},{"id":1375,"title":"Kaisa-talo","slug":"well-kaisa-talo","permalink":"https:\/\/unicafe.fi\/restaurants\/well-kaisa-talo\/","location":[{"id":44,"name":"Keskusta"}],"address":"Vuorikatu 7","visitingHours":null,"blocksHtml":"","menuData":{"areacode":1,"name":"UniCafe Kaisa-talo","id":31,"phone":"+358 505235966","email":"kaisa-talo@unicafe.fi","feedback_address":"https:\/\/smiley.link\/MRFSXVPM","description":"Esteett\u00f6myys<br \/>-Esteet\u00f6n sis\u00e4\u00e4nk\u00e4ynti kahvilaan Vuorikadun puolelta.<br \/>-Kahvilassa on inva-wc.","visitingHours":{"business":{"name":null,"items":[{"closedException":true,"label":"Ma\u2013Pe","hours":"08:00\u201315:00"},{"closedException":true,"label":"La\u2013Su","hours":"Suljettu"},{"exception":true,"label":"20.6.\u201310.8.","hours":"Suljettu"}]},"breakfast":false,"bistro":false,"lounas":{"name":null,"items":[{"closedException":false,"label":"Ma\u2013Pe","hours":"11:00\u201315:00"},{"closedException":false,"label":"La\u2013Su","hours":"Suljettu"},{"exceptionUndefinedTime":false,"label":"Ma-Su","hours":"Suljettu"},{"exceptionUndefinedTime":false,"label":"Ma-Su","hours":"Suljettu"}]}},"menus":[{"data":[],"message":null,"date":"Ma 28.07."},{"date":"Ti 29.07.","message":null,"data":[]},{"data":[],"message":null,"date":"Ke 30.07."},{"message":null,"date":"To 31.07.","data":[]},{"message":null,"date":"Pe 01.08.","data":[]},{"message":null,"date":"La 02.08.","data":[]},{"date":"Su 03.08.","message":null,"data":[]},{"data":[],"message":null,"date":"Ma 04.08."},{"data":[],"date":"Ti 05.08.","message":null},{"message":null,"date":"Ke 06.08.","data":[]},{"date":"To 07.08.","message":null,"data":[]},{"date":"Pe 08.08.","message":null,"data":[]},{"message":null,"date":"La 09.08.","data":[]},{"data":[],"date":"Su 10.08.","message":null}]}},{"id":1374,"title":"Viikuna","slug":"viikuna","permalink":"https:\/\/unicafe.fi\/restaurants\/viikuna\/","location":[{"id":47,"name":"Viikki"}],"address":"Agnes Sj\u00f6bergin katu 2","visitingHours":"4","blocksHtml":"","menuData":{"id":18,"name":"Viikuna","areacode":5,"phone":"+358505576042","email":"viikuna@unicafe.fi","feedback_address":"https:\/\/smiley.link\/CPMWNKCR","description":"Esteett\u00f6myys<br \/>- sis\u00e4\u00e4nk\u00e4ynti : Pihan reunustalla kiinte\u00e4 liuska.<br \/>- inva-wc ravintolaan ment\u00e4ess\u00e4 oikealla naulakoiden luona.","visitingHours":{"business":{"name":null,"items":[{"closedException":false,"label":"Ma\u2013Pe","hours":"08:00\u201314:00"},{"closedException":false,"label":"La\u2013Su","hours":"Suljettu"},{"exceptionUndefinedTime":false,"label":"Ma-Su","hours":"Suljettu"},{"exception":true,"label":"29.5.\u201330.5.","hours":"Suljettu"},{"exception":true,"label":"16.6.\u201317.8.","hours":"Suljettu"},{"exceptionUndefinedTime":false,"label":"Ma-Su","hours":"Suljettu"}]},"breakfast":false,"bistro":{"name":"Pizza","items":[{"closedException":false,"label":"Ma\u2013Pe","hours":"10:30\u201314:00"},{"closedException":false,"label":"La\u2013Su","hours":"Suljettu"},{"exceptionUndefinedTime":false,"label":"Ma-Su","hours":"Suljettu"}]},"lounas":{"name":null,"items":[{"closedException":false,"label":"Ma\u2013Pe","hours":"10:30\u201314:00"},{"closedException":false,"label":"La\u2013Su","hours":"Suljettu"},{"exceptionUndefinedTime":false,"label":"Ma-Su","hours":"Suljettu"}]}},"menus":[{"data":[],"date":"Ma 28.07.","message":null},{"data":[],"message":null,"date":"Ti 29.07."},{"data":[],"message":null,"date":"Ke 30.07."},{"data":[],"message":null,"date":"To 31.07."},{"data":[],"message":null,"date":"Pe 01.08."},{"data":[],"date":"La 02.08.","message":null},{"date":"Su 03.08.","message":null,"data":[]},{"date":"Ma 04.08.","message":null,"data":[]},{"message":null,"date":"Ti 05.08.","data":[]},{"data":[],"message":null,"date":"Ke 06.08."},{"data":[],"message":null,"date":"To 07.08."},{"data":[],"date":"Pe 08.08.","message":null},{"data":[],"message":null,"date":"La 09.08."},{"data":[],"message":null,"date":"Su 10.08."}]}},{"id":1372,"title":"Soc&Kom","slug":"sockom","permalink":"https:\/\/unicafe.fi\/restaurants\/sockom\/","location":[{"id":44,"name":"Keskusta"}],"address":"Yrj\u00f6-Koskisen katu 3","visitingHours":"2","blocksHtml":"","menuData":{"name":"Soc&Kom","areacode":1,"id":15,"phone":"+358 50 557 6079","email":"sockom@unicafe.fi","feedback_address":"https:\/\/smiley.link\/XMTTWJMF","description":"Esteett\u00f6myys<br \/>- sis\u00e4\u00e4nk\u00e4ynti p\u00e4\u00e4ovesta<br \/>- erillinen parkkipaikka Snellmanninkadun puolella.<br \/>- inva WC: t sis\u00e4\u00e4ntuloaulassa","visitingHours":{"business":{"name":null,"items":[{"closedException":true,"label":"Ma\u2013Pe","hours":"09:00\u201314:30"},{"closedException":true,"label":"La\u2013Su","hours":"Suljettu"},{"exception":true,"label":"29.5.\u201330.5.","hours":"Suljettu"},{"exception":true,"label":"16.6.\u201324.8.","hours":"Suljettu"},{"exceptionUndefinedTime":false,"label":"Ma-Su","hours":"Suljettu"}]},"breakfast":false,"bistro":false,"lounas":{"name":null,"items":[{"closedException":false,"label":"Ma\u2013Pe","hours":"11:00\u201314:00"},{"closedException":false,"label":"La\u2013Su","hours":"Suljettu"},{"exceptionUndefinedTime":false,"label":"Ma-Su","hours":"Suljettu"}]}},"menus":[{"message":null,"date":"Ma 28.07.","data":[]},{"data":[],"message":null,"date":"Ti 29.07."},{"date":"Ke 30.07.","message":null,"data":[]},{"data":[],"message":null,"date":"To 31.07."},{"data":[],"message":null,"date":"Pe 01.08."},{"data":[],"date":"La 02.08.","message":null},{"data":[],"message":null,"date":"Su 03.08."},{"data":[],"date":"Ma 04.08.","message":null},{"data":[],"date":"Ti 05.08.","message":null},{"data":[],"date":"Ke 06.08.","message":null},{"data":[],"date":"To 07.08.","message":null},{"data":[],"message":null,"date":"Pe 08.08."},{"data":[],"message":null,"date":"La 09.08."},{"message":null,"date":"Su 10.08.","data":[]}]}},{"id":1370,"title":"Rotunda","slug":"rotunda","permalink":"https:\/\/unicafe.fi\/restaurants\/rotunda\/","location":[{"id":44,"name":"Keskusta"}],"address":"Unioninkatu 36","visitingHours":"3","blocksHtml":"","menuData":{"id":38,"name":"Rotunda","areacode":1,"phone":"+358 50 4167 890 (vuorop\u00e4\u00e4llikk\u00f6) +358 40 508 8156 (ravintolap\u00e4\u00e4llikk\u00f6)","email":null,"feedback_address":"","description":"Esteett\u00f6myys<br \/>- sis\u00e4\u00e4nk\u00e4ynti : Unioninkadun puolelta, hissi.","visitingHours":{"business":{"name":null,"items":[{"closedException":false,"label":"Ma\u2013Pe","hours":"09:30\u201314:00"},{"closedException":false,"label":"La\u2013Su","hours":"Suljettu"},{"exceptionUndefinedTime":false,"label":"Ma-Su","hours":"Suljettu"},{"exception":true,"label":"29.5.\u201324.8.","hours":"Suljettu"}]},"breakfast":false,"bistro":false,"lounas":{"name":null,"items":[{"closedException":false,"label":"Ma\u2013Pe","hours":"11:00\u201313:30"},{"closedException":false,"label":"La\u2013Su","hours":"Suljettu"},{"exceptionUndefinedTime":false,"label":"Ma-Su","hours":"Suljettu"}]}},"menus":[{"data":[],"date":"Ma 28.07.","message":null},{"data":[],"message":null,"date":"Ti 29.07."},{"data":[],"date":"Ke 30.07.","message":null},{"message":null,"date":"To 31.07.","data":[]},{"data":[],"date":"Pe 01.08.","message":null},{"data":[],"message":null,"date":"La 02.08."},{"message":null,"date":"Su 03.08.","data":[]},{"data":[],"date":"Ma 04.08.","message":null},{"data":[],"date":"Ti 05.08.","message":null},{"date":"Ke 06.08.","message":null,"data":[]},{"data":[],"date":"To 07.08.","message":null},{"date":"Pe 08.08.","message":null,"data":[]},{"data":[],"date":"La 09.08.","message":null},{"data":[],"message":null,"date":"Su 10.08."}]}},{"id":1365,"title":"Porthania Opettajien ravintola","slug":"porthania-opettajien-ravintola","permalink":"https:\/\/unicafe.fi\/restaurants\/porthania-opettajien-ravintola\/","location":[{"id":44,"name":"Keskusta"}],"address":"Yliopistonkatu 3","visitingHours":"1","blocksHtml":"","menuData":{"areacode":1,"name":"Porthania Opettajien ravintola","id":34,"phone":"+358 50 416 7890 (vuorop\u00e4\u00e4llikk\u00f6) +358 50 413 0468 (keitti\u00f6mestari) +358 40 508 8156 (ravintolap\u00e4\u00e4llikk\u00f6)","email":"porthania@unicafe.fi","feedback_address":"https:\/\/smiley.link\/KHVFDGMK","description":"Esteett\u00f6mys<br \/>- sis\u00e4\u00e4nk\u00e4ynti : Yliopistonkatu 3, hissill\u00e4 2. krs.<br \/>- inva-wc on aulassa","visitingHours":{"business":{"name":null,"items":[{"closedException":true,"label":"Ma\u2013Pe","hours":"11:00\u201313:30"},{"closedException":true,"label":"La\u2013Su","hours":"Suljettu"},{"exception":true,"label":"16.6.\u201317.8.","hours":"Suljettu"},{"exceptionUndefinedTime":false,"label":"Ma-Su","hours":"Suljettu"}]},"breakfast":false,"bistro":false,"lounas":{"name":null,"items":[{"closedException":false,"label":"Ma\u2013Pe","hours":"11:00\u201313:30"},{"closedException":false,"label":"La\u2013Su","hours":"Suljettu"},{"exceptionUndefinedTime":false,"label":"Ma-Su","hours":"Suljettu"}]}},"menus":[{"date":"Ma 28.07.","message":null,"data":[]},{"date":"Ti 29.07.","message":null,"data":[]},{"data":[],"message":null,"date":"Ke 30.07."},{"message":null,"date":"To 31.07.","data":[]},{"data":[],"message":null,"date":"Pe 01.08."},{"data":[],"message":null,"date":"La 02.08."},{"date":"Su 03.08.","message":null,"data":[]},{"date":"Ma 04.08.","message":null,"data":[]},{"data":[],"message":null,"date":"Ti 05.08."},{"data":[],"date":"Ke 06.08.","message":null},{"message":null,"date":"To 07.08.","data":[]},{"data":[],"message":null,"date":"Pe 08.08."},{"message":null,"date":"La 09.08.","data":[]},{"message":null,"date":"Su 10.08.","data":[]}]}},{"id":1364,"title":"Porthania","slug":"porthania","permalink":"https:\/\/unicafe.fi\/restaurants\/porthania\/","location":[{"id":44,"name":"Keskusta"}],"address":"Yliopistonkatu 3","visitingHours":"3","blocksHtml":"","menuData":{"areacode":1,"name":"Porthania","id":39,"phone":"+358 50 416 7890 (vuorop\u00e4\u00e4llikk\u00f6) +358 50 413 0468 (keitti\u00f6mestari) +358 40 508 8156 (ravintolap\u00e4\u00e4llikk\u00f6)","email":"porthania@unicafe.fi","feedback_address":"https:\/\/smiley.link\/DJXGHDNV","description":"Esteett\u00f6mys<br \/>- sis\u00e4\u00e4nk\u00e4ynti : Yliopistonkatu 3, hissill\u00e4 2. krs.<br \/>- inva-wc on aulassa","visitingHours":{"business":{"name":null,"items":[{"closedException":false,"label":"Ma\u2013Pe","hours":"08:30\u201315:00"},{"closedException":false,"label":"La\u2013Su","hours":"Suljettu"},{"exceptionUndefinedTime":false,"label":"Ma-Su","hours":"Suljettu"},{"exception":true,"label":"30.6.\u201327.7.","hours":"Suljettu"},{"exception":true,"label":"28.7.\u201315.8.","hours":"08:30\u201314:30"}]},"breakfast":{"name":"Breakfast","items":[{"closedException":false,"label":"Ma\u2013Pe","hours":"08:30\u201310:00"},{"closedException":false,"label":"La\u2013Su","hours":"Suljettu"},{"exceptionUndefinedTime":false,"label":"Ma-Su","hours":"Suljettu"},{"exceptionUndefinedTime":false,"label":"Ma-Su","hours":"Suljettu"}]},"bistro":false,"lounas":{"name":null,"items":[{"closedException":false,"label":"Ma\u2013Pe","hours":"10:30\u201315:00"},{"closedException":false,"label":"La\u2013Su","hours":"Suljettu"},{"exceptionUndefinedTime":false,"label":"Ma-Su","hours":"Suljettu"},{"exceptionUndefinedTime":false,"label":"Ma-Su","hours":"Suljettu"},{"exception":true,"label":"28.7.\u201315.8.","hours":"10:30\u201314:30"}]}},"menus":[{"message":null,"date":"Ma 28.07.","data":[{"meta":{"0":["G","VE"],"2":["Ilmastovalinta"],"1":["seesaminsiemeni\u00e4","sinapinsiemeni\u00e4","soijaa"]},"ingredients":"KASVISJALAPENONUGETIT\nKasvis-jalapenonuggetit (Vesi, SOIJAproteiini, punainen paprika, rapsi\u00f6ljy, gluteeniton korppujauho (riisijauho, kikhernejauho, maissit\u00e4rkkelys, suola, dekstroosi), peruna- ja maissit\u00e4rkkelys, kookos\u00f6ljy, jalapeno, hernet\u00e4rkkelys, mausteet (valkosipuli, muskottip\u00e4hkin\u00e4, valkopippuri, mustapippuri, liperinjuuri), sakeuttamisaineet (E 461, E 407a, E 415), aromit., PAAHDETTU SEESAMKASTIKE\nSoijajogurtti (SOIJApohja (vesi, kuorittu SOIJApapu), glukoosi, maissit\u00e4rkkelys, happamuudens\u00e4\u00e4t\u00f6aine (kalsiumsitraatti), sakeuttamisaine (pektiini), suola, hapate, majoneesi (rapsi\u00f6ljy, vesi, etikka, sokeri, suola, muunnettu maissit\u00e4rkkelys, sakeuttamisaine (E 415), SINAPINSIEMEN, dekstroosi, v\u00e4ri (E 160a).), SEESAMINSIEMEN, valkosipulirouhe, rypsi\u00f6ljy, suola (natriumkloridi, kaliumkloridi, magnesiumsulfaatti, lysiinihydrokloridi, paakkuuntumisenestoaine (piioksidi), kaliumjodidi).\nHiilijalanj\u00e4lki: 0, 43 kg CO 2e \/ annos","name":"Kasvisjalapenonugetteja ja paahdettua seesamkastiketta","price":{"value":{"normal":"9.30","graduate":"5.55","contract":"7.30","student_hyy":"2.95","student":"2.95","graduate_hyy":"5.55"},"name":"Vegaani"},"nutrition":"Energia 205kcal \/ 856kJ, Rasva 13, 94g, Hiilihydraatti 14, 02g, Proteiini 7, 80g, Suola 0, 78g","sku":"9045"},{"nutrition":"Energia 76kcal \/ 319kJ, Rasva 1, 90g, Hiilihydraatti 9, 74g, Proteiini 3, 64g, Suola 0, 24g","sku":"8993","name":"Munakoiso-luomukikhernetaginea & basilikakastiketta","price":{"value":{"contract":"7.30","student_hyy":"2.95","normal":"9.30","graduate":"5.55","student":"2.95","graduate_hyy":"5.55"},"name":"Vegaani"},"ingredients":"Vesi, tomaattimurska (tomaatti, tomaattimehu), soijajogurttikastike, basilika (SOIJApohja (vesi, kuorittu SOIJApapu), glukoosi, maissit\u00e4rkkelys, happamuudens\u00e4\u00e4t\u00f6aine (kalsiumsitraatti), sakeuttamisaine (pektiini), suola, hapate, valkoviinietikka, hapettumisenestoaine (kaliumvetySULFIITTI), sokeri, basilika, grillatut munakoisoviipaleet, kes\u00e4kurpitsa, luomu kikherne, bataatti, taateli, sipuli, herneproteiinirouhe (keltainen herne), sitruunat\u00e4ysmehu, s\u00e4il\u00f6nt\u00e4aine (E 202), rypsi\u00f6ljy, suola (natriumkloridi, kaliumkloridi, magnesiumsulfaatti, lysiinihydrokloridi, paakkuuntumisenestoaine (piioksidi), kaliumjodidi.), juustokumina, savupaprikajauhe, valkosipulimurska (valkosipuli, vesi, sokeri, valkoviinietikka, happamuudens\u00e4\u00e4t\u00f6aine (E 330), s\u00e4il\u00f6nt\u00e4aine (E 211)), kurkuma, kaneli, kardemumma, mustapippuri., Hiilijalanj\u00e4lki: 0, 38 kg CO 2e \/ annos","meta":{"1":["soijaa","sulfiitteja"],"2":["Ilmastovalinta"],"0":["G","[S]","VE"]}},{"meta":{"0":["G","L"],"1":["kananmunaa","maitoa"],"2":[]},"ingredients":"Kanapy\u00f6ryk\u00e4t: Kananliha (SUOMI), peruna, KANANMUNA, vesi, kuivattu sipuli, perunakuitu, suola, stabilointiaineet (E 450), mausteet (musta- ja maustepipuri), rypsi\u00f6ljy. (muna).\nKermainen currykastike:, KERMA, stabilointi- ja happamuudens\u00e4\u00e4t\u00f6aineet (E 412, E 331, E 1450) (maito), Kasvirasva (palmu\u00f6ljy, kookosrasva), rypsi\u00f6ljy, vesi, suola, emulgointiaineet (E 471, E 472c, E 322 auringonkukkalesitiini), happamuudens\u00e4\u00e4t\u00f6aineet (E 330, E 500), aromi, A- ja D 2-vitamiini, v\u00e4ri (E 160a)., omena, sipuli, Korianteri, kurkuma, sarviapila, cayennepippuri, juustokumina, fenkoli, mustapippuri., maissit\u00e4rkkelys, V\u00e4ri (sokerikul\u00f6\u00f6ri E 150c), vesi, Suola, glukoosisiirappi, aromi, sipuli, modifioitu t\u00e4rkkelys, maltodekstriini, rapsi\u00f6ljy, kasvistiivistett\u00e4 (porkkana, purjo, herkkusieni, parsakaali, paprika), mausteet, sokeri, etikkauute, rosmariiniuute., Sokeri, Mustapippuri., Hiilijalanj\u00e4lki: 0, 85 kg CO 2e \/ annos","name":"Kanapy\u00f6ryk\u00f6it\u00e4 & kermaista currykastiketta","price":{"name":"P\u00e4iv\u00e4n lounas","value":{"graduate":"5.55","normal":"9.30","contract":"7.30","student_hyy":"2.95","student":"2.95","graduate_hyy":"5.55"}},"nutrition":"Energia 148kcal \/, 620kJ, Rasva, 9, 24g, Hiilihydraatti, 6, 51g, Proteiini, 9, 83g, Suola 1, 11g","sku":"7586"},{"meta":{"2":[],"1":["gluteenia","sinapinsiemeni\u00e4","sinappia","soijaa"],"0":["[S]","VE"]},"ingredients":"Seitan (VEHN\u00c4GLUTEENI, sipuli, rapsi\u00f6ljy, maissijauho, aromikastike (suola, aromi, sokeri, fermentoitu sokeri, muunnettu t\u00e4rkkelys), suola, paprika, mustapippuri, arominvahvenne (E 621), maltodekstriini, chili, paakkuuntumisenestoaine (E 551), valkosipuli, umami, maltodekstriini, hiivauute, palmurasva, sipulijauhe, mausteet ja yrtit (mm. laakerinlehti), voitatti, mausteuute, curryjauhe, kasvisliemijauhe suola, maltodekstriini, kasvisjauhe (palsternakka, porkkana, purjosipuli), luontainen aromi, chili), amerikansalaatti, pinaatti, tomaatti, punasipuli, oliivi, minttu, rypsi\u00f6ljy, SOIJAKASTIKE, savupaprikajauhe, mustapippuri., SOIJAGURTTI, vegaaninen majoneesi (rypsi\u00f6ljy, muunnettu t\u00e4rkkelys, etikka, SINAPINSIEMEN, mausteet, suola, sokeri, perunaproteiini, happamuudens\u00e4\u00e4t\u00f6aine [sitruunahappo], stabilointiaineet [guarkumi, natriumalginaatti], s\u00e4il\u00f6nt\u00e4aineet [kaliumsorbaatti, natriumbentsoaatti]), kurkku, sitruuna, suola, valkopippuri., Hiilijalanj\u00e4lki: 0, 68 kg CO 2e \/ annos","price":{"name":"Vegaani","value":{"student":"2.95","graduate_hyy":"5.55","normal":"9.30","graduate":"5.55","contract":"7.30","student_hyy":"2.95"}},"name":"Kreikkalainen seitan-salaatti","sku":"6551","nutrition":"Energiaa 99kcal, hiilihydraattia 4g, rasvaa 6g, proteiinia 6g, suolaa 0, 5g."},{"nutrition":"Energiaa 51 kcal (214 kJ), hiilihydraattia 11 g, rasvaa 0, g, proteiinia 0 g, suola 0 g","sku":"101","price":{"value":{"contract":"1.50","student_hyy":"1.50","normal":"1.50","graduate":"1.50","graduate_hyy":"1.50","student":"1.50"},"name":"Makeasti"},"name":"Mangosmoothie","ingredients":"Ananas, mango, omenamehu, limemehu (s\u00e4il\u00f6nt\u00e4aine (kaliumdiSULFIITTI E 224)).\nHiilijalanj\u00e4lki: 0, 16 kg CO 2e \/ annos","meta":{"0":["G","VE"],"2":[],"1":["sulfiitteja"]}}]},{"message":null,"date":"Ti 29.07.","data":[{"meta":{"2":["Ilmastovalinta"],"1":[],"0":["G","[S]","VE"]},"ingredients":"KASVISKEPUKAT\nHerne, maissi, porkkana, peruna, gluteeniton korppujauho [riisijauho, kikhernejauho, maissit\u00e4rkkelys, suola, dekstroosi], rypsi\u00f6ljy, perunaproteiini, riisit\u00e4rkkelys, sitruskuitu, sipuli, valkosipuli, paprika, korianteri, kurkuma, inkiv\u00e4\u00e4ri, kumina, cayenne, mustapippuri, sakeuttamisaineet E 461, E 407a, jodioitu suola, sokeri., RAIKASTA MAISSISALSAA\nMaissi, vesi, suola, chilpotle salsa (tomaattisose (tiivistetty tomaatti), savustettu jalapenochili, sokeri, sipuli, viinietikka, suola, rapsi\u00f6ljy, paprika, oregano, laakerinlehti, timjami, valkosipuli), punasipuli, limet\u00e4ysmehu (limemehu, s\u00e4il\u00f6nt\u00e4aine (kaliumdisulfiitti E 224)), valkosipulimurska (valkosipuli, valkoviinietikka, happamuudens\u00e4\u00e4t\u00f6aine (E 330), s\u00e4il\u00f6nt\u00e4aine (E 211)), korianteri.\nHiilijalanj\u00e4lki: 0, 40 kg CO 2e \/ annos","price":{"name":"Vegaani","value":{"contract":"7.30","student_hyy":"2.95","normal":"9.30","graduate":"5.55","student":"2.95","graduate_hyy":"5.55"}},"name":"Kasviskepukoita & raikasta maissisalsaa","sku":"9067","nutrition":"Energia 140kcal \/ 587kJ, Rasva 6, 13g, Hiilihydraatti 15, 80g, Proteiini 4, 38g, Suola 0, 87g"},{"meta":{"2":["Ilmastovalinta","Sis\u00e4lt\u00e4\u00e4 Reilun kaupan tuotteita"],"1":["soijaa"],"0":["G","[S]","VE"]},"ingredients":"Tomaattimurska (tomaatti, tomaattimehu), Tofu (Reilun kaupan luomuSOIJAPAPU, vesi), Sipuli, Paprika, kauraruoka gluteeniton (KAURApohja (vesi, gluteeniton t\u00e4ysjyv\u00e4KAURA), rypsi\u00f6ljy, muunnetut t\u00e4rkkelykset, stabilointiaine (guarkumi), happamuudens\u00e4\u00e4t\u00f6ain e (natriumsitraatti), emulgointiaine (E 472e).), Tomaattipyre (tomaatti), Margariini (palmu\u00f6ljy SG, rypsi\u00f6ljy, vesi, kookos\u00f6ljy, suola, emulgointiaine (E 322 auringonkukkalesitiini, E 471, E 475), happamuudens\u00e4\u00e4t\u00f6aine (E 330), aromi, v\u00e4ri (E 160a), A-vitamiini, D-vitamiini.), Suola (Natriumkloridi, kaliumkloridi, magnesiumsulfaatti, lysiinihydrokloridi, paakkuuntumisenestoaine (piioksidi), kaliumjodidi.), Neilikka, Korianteri, Chilipippurijauhe (Chilipippuri, paakkuuntumisenestoaine (piidioksidi).), Kardemumma., Hiilijalanj\u00e4lki: 0, 44 kg CO 2e \/ annos","name":"Vegaaninen buttertofu","price":{"value":{"normal":"9.30","graduate":"5.55","contract":"7.30","student_hyy":"2.95","student":"2.95","graduate_hyy":"5.55"},"name":"Vegaani"},"nutrition":"Energiaa 93kcal (390kJ), hiilihydraattia 3, 7g, rasvaa 6, 5g, proteiinia 4, 5g, suolaa 0, 28g","sku":"6935"},{"meta":{"1":["gluteenia","kalaa","maitoa"],"2":["Ilmastovalinta"],"0":["L","[S]"]},"ingredients":"RUISKALA\nT\u00e4ysjyv\u00e4 kalafilee (ALASKANSEITI, t\u00e4ysjyv\u00e4 korppujauho (T\u00c4YSJYV\u00c4VEHN\u00c4JAUHO, vesi, hiiva, suola, mallastettu T\u00c4YSJYV\u00c4VEHN\u00c4) rapsi\u00f6ljy, T\u00c4YSJYV\u00c4VEHN\u00c4JAUHO, vesi, suola, nostatusaineet (E 450, E 500, VEHN\u00c4T\u00c4RKKELYS)., PIPARJUURIKASTIKE\nTurkkilainen jogurtti (past\u00f6roitu MAITO ja KERMA, MAITOJAUHE, hapate), piparjuuritahna (piparjuuri, vesi, sokeri, suola, rypsi\u00f6ljy, s\u00e4il\u00f6nt\u00e4aine (sitruunahappo), antioksidantti (askorbiinihappo), s\u00e4il\u00f6nt\u00e4aine (natriummetabisulfiitti)), Appelsiinit\u00e4ysmehutiiviste (C-vitamiini), limet\u00e4ysmehu (limemehu, s\u00e4il\u00f6nt\u00e4aine (kaliumdisulfiitti E 224)), sokeri, suola (natriumkloridi, kaliumkloridi, magnesiumsulfaatti, lysiinihydrokloridi, paakkuuntumisenestoaine (piioksidi), kaliumjodidi.), tilli, mustapippuri., Hiilijalanj\u00e4lki: 0, 43 kg CO 2e \/ annos","name":"Rapeaa ruiskalaa & piparjuurikastiketta","price":{"value":{"graduate_hyy":"5.55","student":"2.95","contract":"7.30","student_hyy":"2.95","graduate":"5.55","normal":"9.30"},"name":"P\u00e4iv\u00e4n lounas"},"nutrition":"Energia 197kcal \/ 826kJ, Rasva 11, 94g, Hiilihydraatti 11, 46g, Proteiini 10, 21g, Suola 0, 88g","sku":"8989"},{"meta":{"2":[],"1":["gluteenia","kalaa","kananmunaa","maitoa","sinapinsiemeni\u00e4","sinappia","soijaa","sulfiitteja"],"0":["[S]","VL"]},"ingredients":"Amerikansalaatti, kana (SUOMI), rypsi\u00f6ljy, Caesar-kastike (rypsi\u00f6ljy, vesi, sitruunat\u00e4ysmehutiiviste, ANJOVIS (SILLI, vesi, sokeri, mausteet, aromit), dijonSINAPPI (SINAPINsiemen, v\u00e4kiviinaetikka, hapettumisenestoaine E 224 kaliumdiSULFIITTI, happamuudens\u00e4\u00e4t\u00f6aine E 330), sokeri, KANANMUNANKELTUAINEN, JUUSTO, SINAPPI , maustekastike (vesi, tamarindimehu, siirappi, viinietikka, SOIJAkastike (SOIJApapu, VEHN\u00c4jauho, vesi, suola), etikka, sipuli, valkosipuli, neilikka, chili, maustepippuri, mustapippuri, happamuudens\u00e4\u00e4t\u00f6aine (E 330), s\u00e4il\u00f6nt\u00e4aineet (E 202, E 211)), suola, SINAPINsiemen, sipulijauhe, perunajauho, valkopippuri, valkosipuli, stabilointiaineet (E 415, E 412), s\u00e4il\u00f6nt\u00e4aineet (E 202, E 211), happamuudens\u00e4\u00e4t\u00f6 aineet (E 330, E 260)), tomaatti, krutonki (durumVEHN\u00c4jauho, oliivi\u00f6ljy, merisuola, hiiva, maissi- ja OHRAmallasuute, sokeri.), parmesan (past\u00f6roimaton MAITO, suola, hapate), herneenverso., Hiilijalanj\u00e4lki: 0, 67 kg CO 2e \/ annos","name":"Kana-Caesarsalaattia","price":{"value":{"graduate_hyy":"5.55","student":"2.95","normal":"9.30","graduate":"5.55","student_hyy":"2.95","contract":"7.30"},"name":"P\u00e4iv\u00e4n lounas"},"sku":"710","nutrition":"Energiaa 105kcal (438kJ), hiilihydraattia 4g, rasvaa 6g, proteiinia 7g, suolaa 0, 48g."},{"nutrition":"Energiaa, 143 kcal (599 kJ), hiilihydraattia 11, g, rasvaa 9 g, proteiinia 3 g, suola 0, 1 g","sku":"85","price":{"value":{"student":"1.50","graduate_hyy":"1.50","student_hyy":"1.50","contract":"1.50","graduate":"1.50","normal":"1.50"},"name":"Makeasti"},"name":"Vadelmamoussea ja rapeaa granolaa","ingredients":"Vadelma, kauravalmiste (palmu\u00f6ljy, sokeri, KAURA, emulgointiaineet (rasvahappojen mono- ja diglyseridit, E 481), stabilointiaineet (E 464, gellaanikumi), happamuudens\u00e4\u00e4t\u00f6aineet (natriumfosfaatti, natriumsitraatti), suola, v\u00e4ri (karotenoidit).), gluteiiniton kaurahiutale (Luomut\u00e4ysjyv\u00e4KAURA.), auringonkukan- ja kurpitsansiemen, minttu, Agavesiirappi.\nHiilijalanj\u00e4lki: 0, 07 kg CO 2e \/ annos","meta":{"0":["G","VE"],"1":[],"2":[]}}]},{"date":"Ke 30.07.","message":null,"data":[{"ingredients":"FALAFELPY\u00d6RYK\u00c4T\nKikherne, sipuli, rypsi\u00f6ljy, vesi, persilja, pepperonipaprika, herneproteiini, korianteri, valkosipuli, sakeuttamisaineet (E 461, E 407a, E 508), jodioitu suola, nostatusaine (E 500), sitruunamehu, juustokumina, sokeri, chilijauhe, mustapippuri., PAPRIKAKASTIKE\nSOIJAjogurtti, vesi, kuorittu SOIJApapu, glukoosi, maissit\u00e4rkkelys, majoneesi vegaaninen, happamuudens\u00e4\u00e4t\u00f6aine (kalsiumsitraatti), sakeuttamisaine (pektiini), suola, hapate, rapsi\u00f6ljy, etikka, sokeri, suola, muunnettu maissit\u00e4rkkelys, sakeuttamisaine (E 415), SINAPINSIEMEN, dekstroosi, v\u00e4ri (E 160a), paprika, punaviinietikka,, jalapenos\u00e4ilyke [jalapenopaprika, stabilointiaine (E 509), valkosipuli], s\u00e4il\u00f6nt\u00e4aine (E 202), natriumkloridi, kaliumkloridi, magnesiumsulfaatti, lysiinihydrokloridi, paakkuuntumisenestoaine (piioksidi), kaliumjodidi.\nHiilijalanj\u00e4lki: 0, 48 kg CO 2e \/ annos","meta":{"0":["G","VE"],"2":["Ilmastovalinta"],"1":["sinapinsiemeni\u00e4","soijaa"]},"nutrition":"Energia 158kcal \/ 660kJ, Rasva 11, 35g, Hiilihydraatti 7, 53g, Proteiini 5, 02g, Suola 0, 72g","sku":"9054","name":"Falafelpy\u00f6ryk\u00f6it\u00e4 & paprikakastiketta","price":{"name":"Vegaani","value":{"graduate":"5.55","normal":"9.30","student_hyy":"2.95","contract":"7.30","student":"2.95","graduate_hyy":"5.55"}}},{"nutrition":"Energia 80 kcal (336 kj), hiilihydraatti 6, 6 g, rasva 4, 4 g, proteiini 2, 9 g, suolaa 0, 60g.","sku":"6673","name":"H\u00e4rkisbolognese","price":{"name":"Vegaani","value":{"graduate_hyy":"5.55","student":"2.95","normal":"9.30","graduate":"5.55","contract":"7.30","student_hyy":"2.95"}},"ingredients":"Tomaattimurska (tomaatti, tomaattimehu), Juuressuikale (porkkana, SELLERI, purjosipuli, palsternakka), H\u00e4rkis (H\u00e4rk\u00e4papu, vesi, herneproteiini, rypsi\u00f6ljy, stabilointiaineet (E 460, E 461), suola (suola, jodi), siirappi, muunnettu t\u00e4rkkelys, v\u00e4ri (sokerikul\u00f6\u00f6ri), kasvikuitu, sipuliuute, mustapippuri), Sipuli, Tomaattipyre (tomaatti), Porkkanaraaste (Porkkana), Rypsi\u00f6ljy (rapsi\u00f6ljy), Maissit\u00e4rkkelys, kasvisliemijauhe v\u00e4h\u00e4suolainen (Suola, glukoosisiirappi, aromi, sipuli, modifioitu t\u00e4rkkelys, maltodekstriini, rapsi\u00f6ljy, kasvistiivistett\u00e4 (porkkana, purjo, herkkusieni, parsakaali, paprika), mausteet, sokeri, etikkauute, rosmariiniuute.), Fariinisokeri (Sokeri ja ruokosokerisiirappi), Valkosipulimurska (valkosipuli, vesi, sokeri, valkoviinietikka, happamuudens\u00e4\u00e4t\u00f6aine (E 330), s\u00e4il\u00f6nt\u00e4aine (E 211)), punaviinietikka (punaviinietikka, s\u00e4il\u00f6nt\u00e4aine (kaliumvetySULFIITTI)), Suola (Natriumkloridi, kaliumkloridi, magnesiumsulfaatti, lysiinihydrokloridi, paakkuuntumisenestoaine (piioksidi), kaliumjodidi.), Mustapippuri, Basilika, Oregano, Timjami.\nHiilijalanj\u00e4lki: 0, 44 kg CO 2e \/ annos","meta":{"1":["selleri\u00e4","sulfiitteja"],"2":["Ilmastovalinta"],"0":["G","[S]","VE"]}},{"price":{"name":"P\u00e4iv\u00e4n lounas","value":{"graduate_hyy":"5.55","student":"2.95","contract":"7.30","student_hyy":"2.95","normal":"9.30","graduate":"5.55"}},"name":"Limonello broileria & pastaa","sku":"1287","nutrition":"Energiaa 116 kcal (486 kJ), hiilihydraattia 5, 5 g, rasvaa 7, 3 g, proteiinia 7 g, suolaa 0, 9 g.","meta":{"0":["L","[S]"],"1":["gluteenia","maitoa"],"2":[]},"ingredients":"Kana (SUOMI), Ruokakerma (KERMA, stabilointi- ja happamuudens\u00e4\u00e4t\u00f6aineet (E 412, E 331, E 1450)), Jogurtti (Past\u00f6roitu MAITO ja hapate (asidofilus-bifido)), Sipuli, Sitruunat\u00e4ysmehu (Sitruunamehutiiviste, sokeri, s\u00e4il\u00f6nt\u00e4aine (E 202)), Hunaja, Valkosipulimurska (valkosipuli), vesi, sokeri, valkoviinietikka, happamuudens\u00e4\u00e4t\u00f6aine (E 330), s\u00e4il\u00f6nt\u00e4aine (E 211)), Sitruunankuorirouhe (sitruunankuori), kanaliemijauhe v\u00e4h\u00e4suolainen (Glukoosisiirappi, suola, aromit, kananrasva, broilerin nahka- ja lihajauhe, hapot (sitruunahappo, maitohappo, kalsiumlaktaatti), mausteet (valkopippuri, kurkuma), lipstikka.), Inkiv\u00e4\u00e4ri, tahna (Inkiv\u00e4\u00e4ri, etikka, sokeri, suola, happamuudens\u00e4\u00e4t\u00f6aineet (sitruunahappo, askorbiinihappo).), Kurkuma (Kurkuma), Rypsi\u00f6ljy (rapsi\u00f6ljy), Maissit\u00e4rkkelys (maissit\u00e4rkkelys), Chilirouhe (Chilipippuri.), Suola (Natriumkloridi, kaliumkloridi, magnesiumsulfaatti, lysiinihydrokloridi, paakkuuntumisenestoaine (piioksidi), kaliumjodidi.), Mustapippuri., Hiilijalanj\u00e4lki: 0, 68 kg CO 2e \/ annos, Pasta erikseen."},{"ingredients":"Amerikansalaatti, KATKARAPU (MSC), porkkana, kurkku, Sweet Chilikastike (Sokeri, chili, etikka, suola, muunnettu t\u00e4rkkelys, valkosipuli, sakeuttamisaine (ksantaani), s\u00e4il\u00f6nt\u00e4aine (kaliumsorbaatti), happo (sitruunahappo).), (avokado (suola, hapettumisenestoaine (E 300), happamuudens\u00e4\u00e4t\u00f6aine (E 330)), punasipuli, ananas, korianteri., Hiilijalanj\u00e4lki: 1, 23 kg CO 2e \/ annos","meta":{"1":["\u00e4yri\u00e4isi\u00e4"],"2":[],"0":["G","L","M","[S]"]},"nutrition":"Energiaa 51kcal (212kJ), hiilihydraattia 7g, rasvaa 1g, proteiinia 4g, suolaa 0, 33g.","sku":"839","name":"Chili-katkarapusalaattia","price":{"name":"P\u00e4iv\u00e4n lounas","value":{"graduate_hyy":"5.55","student":"2.95","contract":"7.30","student_hyy":"2.95","graduate":"5.55","normal":"9.30"}}},{"nutrition":"Energia 227kcal \/ 952kJ, Rasva 17, 91g, Hiilihydraatti 16, 25g, Proteiini 0, 34g, Suola 0, 04g","sku":"8204","price":{"value":{"graduate_hyy":"1.50","student":"1.50","student_hyy":"1.50","contract":"1.50","normal":"1.50","graduate":"1.50"},"name":"Makeasti"},"name":"Mangopannacotta","ingredients":"Vispautuva kauravalmiste (vesi, kokonaan kovetetut kasvi\u00f6ljyt (kookos, rypsi), sokeri, KAURAuute, emulgointiaineet (E 435, E 475), stabilointiaine (E 464), happamuudens\u00e4\u00e4t\u00f6aine (natriumsitraatti), suola, v\u00e4ri (karotenoidit).), mangosose, sokeri, minttu, vaniljasokeri (sokeri, tomusokeri, vanilja, perunat\u00e4rkkelys, aromi), Vegegel (hyytel\u00f6imisaineet (agar (E 406), konjak (E 425), johanneksenleip\u00e4puujauhe (E 410)), maltodekstriini).\nHiilijalanj\u00e4lki: 0, 10 kg CO 2e \/ annos","meta":{"1":[],"2":[],"0":["G","VE"]}}]},{"data":[{"ingredients":"Kasvisjauhispihvi (herneproteiini, rypsi\u00f6ljy, gluteeniton korppujauho [riisijauho, kikhernejauho, maissit\u00e4rkkelys, dekstroosi], psyllium, aromit, sakeuttamisaineet, suola, sipuli, mustapippuri).\nMangokastike : SOIJAGURTTI (SOIJA, maissit\u00e4rkkelys, happamuudens\u00e4\u00e4t\u00f6aine kalsiumsitraatti, sakeuttamisaine pektiini, suola, hapate), currytahna (rapsi\u00f6ljy, sokeri, suola, v\u00e4kiviinaetikka, mausteet (kurkuma, valkosipuli, chili, korianteri, paprika, inkiv\u00e4\u00e4ri, sitruunaruoho, kaffirlimenlehti), curry (kurkuma, tillinsiemen, kumina, fenkoli, mustapippuri, cayenne, neilikka, korianteri, perunat\u00e4rkkelys, sarviapila, valkosipuli), muunnettu maissit\u00e4rkkelys, paprika, dekstriini, sipuli, sitruuna, s\u00e4il\u00f6nt\u00e4aineet), mangosose., Hiilijalanj\u00e4lki: 0, 54 kg CO 2e \/ annos","meta":{"2":[],"1":["soijaa"],"0":["G","VE"]},"nutrition":"Energiaa 182kcal (762kJ), hiilihydraattia 9, 6g, rasvaa 10g, proteiinia 10g, suolaa 1, 21g.","sku":"6044","name":"Rapeat kasvisjauhispihvit & mangokastiketta","price":{"value":{"contract":"7.30","student_hyy":"2.95","normal":"9.30","graduate":"5.55","graduate_hyy":"5.55","student":"2.95"},"name":"Vegaani"}},{"meta":{"1":["maap\u00e4hkin\u00e4\u00e4","p\u00e4hkin\u00e4\u00e4"],"2":["Ilmastovalinta"],"0":["G","[S]","VE"]},"ingredients":"Tomaattimurska (tomaatti, tomaattimehu), Fermentoitu h\u00e4rk\u00e4papu (Fermentoitu h\u00e4rk\u00e4papu, vesi, merisuola), sipuli, punainen paprika, maustamaton kauraruoka (Kaurapohja (vesi, gluteeniton KAURA), rypsi\u00f6ljy, muunnetut t\u00e4rkkelykset, stabilointiaine (guarkumi), happamuudens\u00e4\u00e4t\u00f6aine (natriumsitraatti), emulgointiaine (E 472e), tomaattipyre, MAAP\u00c4HKIN\u00c4, kasvivoimaa (GLUTEENITON\u00a0 KAURAjuoma (vesi, KAURA, auringonkukka\u00f6ljy), suola, emulgointiaine (auringonkukkalesitiini), luontaiset aromit, A- ja D 2-vitamiinit, v\u00e4ri (beta-karoteeni)) , kaakaorasva, suola, emulgointiaine (auringonkukkale sitiini), luontaiset aromit, A- ja D 2-vitamiinit, v\u00e4ri (beta-karoteeni).), suola (natriumkloridi, kaliumkloridi, magnesiumsulfaatti, lysiinihydrokloridi, paakkuuntumisenestoaine (piioksidi), kaliumjodidi.), kardemumma, korianteri, chilipippurijauhe (chilipippuri, paakkuuntumisenestoaine (piidioksidi).), neilikka., Hiilijalanj\u00e4lki: 0, 47 kg CO 2e \/ annos","price":{"name":"Vegaani","value":{"graduate":"5.55","normal":"9.30","student_hyy":"2.95","contract":"7.30","graduate_hyy":"5.55","student":"2.95"}},"name":"Butterh\u00e4rk\u00e4papua ja p\u00e4hkin\u00e4\u00e4","sku":"9017","nutrition":"Energiaa 109kcal (457kJ), rasvaa 6, 82g, hiilihydraattia 6, 89g,, proteiinia 4, 43g, suola 0, 45g"},{"meta":{"2":["Ilmastovalinta"],"1":["gluteenia"],"0":["[S]","VE"]},"ingredients":"Vesi, kauraruoka gluteeniton (KAURApohja (vesi, gluteeniton t\u00e4ysjyv\u00e4KAURA), rypsi\u00f6ljy, muunnetut t\u00e4rkkelykset, stabilointiaine (guarkumi), happamuudens\u00e4\u00e4t\u00f6aine (natriumsitraatti), emulgointiaine (E 472e).), makaroni (VEHN\u00c4JAUHO, DURUMVEHN\u00c4JAUHO, vesi.), jauhismuru, herneproteiini (Vesi, herneproteiini, rypsi\u00f6ljy, suola, aromit ja mausteet (musta ja valkopippuri),\npunajuuri jauhe, karrageeni.), Sipuli, Porkkanaraaste, Suola (Natriumkloridi, kaliumkloridi, magnesiumsulfaatti, lysiinihydrokloridi, paakkuuntumisenestoaine (piioksidi), kaliumjodidi.), Paprika, Mustapippurirouhe, HILLOTTU PUOLUKKA:\nPuolukkasurvos (puolukka, vesi, sokeri, sakeuttamisaine (pektiini), s\u00e4il\u00f6nt\u00e4aineet (E 202, E 211).),, Hiilijalanj\u00e4lki: 0, 34 kg CO 2e \/ annos","name":"Makaronilaatikkoa ja hillottua puolukkaa","price":{"name":"Vegaani","value":{"graduate_hyy":"5.55","student":"2.95","graduate":"5.55","normal":"9.30","contract":"7.30","student_hyy":"2.95"}},"nutrition":"Ravintoarvo 100g: energiaa 104 kcal (434kJ), hiilihydraatteja 13, 29g, rasvaa 3, 8g, proteiinia 3, 71g, suolaa 0, 47g","sku":"8996"},{"ingredients":"Seitanlastu (vesi, VEHN\u00c4GLUTEENI, esipaistettu sipuli (sipuli, rapsi\u00f6ljy), maissijauho, rapsi\u00f6ljy, aromikastike (vesi, suola, aromi, sokeri, fermentoitu sokeri, muunnettu t\u00e4rkkelys), mausteseos [suola, paprika, mustapippuri, arominvahvenne (E 621), sokeri, sipuli, maltodekstriini, chili, paakkuuntumisenestoaine (E 551)], valkosipuli, umami [suola, maltodekstriini, hiivauute, palmurasva, sipulijauhe, mausteet ja yrtit (mm. valkosipuli, laakerinlehti), voitatti, mausteuute], curryjauhe, kasvisliemijauhe [suola, maltodekstriini, kasvisjauhe (sipuli, palsternakka, porkkana, purjosipuli), luontainen aromi], sokeri, chili, suola), Amerikansalaatti, Porkkanaraaste, Mango, Chili hummus (Kikherne, vesi, SEESAMINSIEMENTAHNA, rapsi\u00f6ljy, sitruunat\u00e4ysmehu, valkosipuli, mausteet (mm. chili, kurkuma, mustapippuri), merisuola, sokeri, s\u00e4il\u00f6nt\u00e4aineet (sitruunahappo, kaliumsorbaatti).), kaurasuurimo gluteeniton, Punasipuli, Suolap\u00e4hkin\u00e4 (Maap\u00e4hkin\u00e4, kasvi\u00f6ljy (auringonkukka), suola.), salaattisekoitus (romainesalaatti, friseesalaatti, punasalaatti ja vuonankaali), punaviinietikka (punaviinietikka, s\u00e4il\u00f6nt\u00e4aine (kaliumvetySULFIITTI)), Korianteri, Sokeri, Suola (natriumkloridi, kaliumkloridi, magnesiumsulfaatti, lysiinihydrokloridi, paakkuuntumisenestoaine (piioksidi), kaliumjodidi.), Makeantulinen paprikakastike (Paprika (50 %), sokeri, vesi, punaviinietikka, muunnettu maissit\u00e4rkkelys, jalapenos\u00e4ilyke (3 %) jalapenopaprika, vesi, etikka, suola, stabilointiaine (E 509), valkosipuli, suola, s\u00e4il\u00f6nt\u00e4aine (E 202).).\nHiilijalanj\u00e4lki: 0, 54 kg CO 2e \/ annos","meta":{"2":[],"1":["gluteenia","maap\u00e4hkin\u00e4\u00e4","seesaminsiemeni\u00e4"],"0":["[S]","VE"]},"sku":"20011","nutrition":"Energia 125 kcal \/ 522 kJ, Rasva 3, 85 g, Hiilihydraatti 10, 73 g, Proteiini 6, 73 g, Suola 0, 35 g","price":{"value":{"student":"2.95","graduate_hyy":"5.55","graduate":"5.55","normal":"9.30","student_hyy":"2.95","contract":"7.30"},"name":"Vegaani"},"name":"Makeantulinen Seitan Bowl"},{"ingredients":"Banaani, glukoosisiirappi, makeutettu tiivistetty t\u00e4ysMAITO, sokeri, vesi, kasvirasvat (palmunydin*, palmu*), emulgointiaine (E 471, kasviper\u00e4inen), suola, s\u00e4il\u00f6nt\u00e4aine (E 202), aromi, sakeuttamisaine (E 415. *vastuullisesti tuotettua ja sertifioitua palmu\u00f6ljy\u00e4 (maito), Past\u00f6roitu RASVATON MAITO ja hapate, VEHN\u00c4jauho, t\u00e4ysjyv\u00e4KAURAhiutaleet, sokeri, rypsi\u00f6ljy, kasvirasva (palmu), herajauhe (MAIDOSTA), nostatusaineet (natriumvetykarbonaatti, ammoniumvetykarbonaatti), suola, melassi, happamuudens\u00e4\u00e4t\u00f6aine (maitohappo), emulgointiaine (rasvahappojen mono- ja diglyseridien mono- ja diasetyyliviinihappoesterit), aromit, KERMA, stabilointiaine (karrageeni), kaakaojauhe, happamuudens\u00e4\u00e4t\u00f6aine (kaliumhydroksidi, kaliumkarbonaatit)., Sokeri, tomusokeri, vanilja, perunat\u00e4rkkelys, aromi.\nHiilijalanj\u00e4lki: 0, 20 kg CO 2e \/ annos","meta":{"0":["L"],"1":["gluteenia","maitoa"],"2":[]},"nutrition":"Energiaa 227kcal (949kJ), hiilihydraattia 24g, rasvaa 13g, proteiinia 4g.","sku":"5948","name":"Banoffee","price":{"value":{"normal":"1.50","graduate":"1.50","contract":"1.50","student_hyy":"1.50","graduate_hyy":"1.50","student":"1.50"},"name":"Makeasti"}}],"date":"To 31.07.","message":null},{"data":[{"name":"Vebabtortilla & raikasta chimicurria","price":{"value":{"graduate":"5.55","normal":"9.30","contract":"7.30","student_hyy":"2.95","student":"2.95","graduate_hyy":"5.55"},"name":"Vegaani"},"sku":"9036","nutrition":"Energia 191kcal \/ 799kJ, Rasva 9, 49g, Hiilihydraatti 18, 66g, Proteiini 6, 31g, Suola 0, 96g","meta":{"2":[],"1":["gluteenia","soijaa","sulfiitteja"],"0":["[S]","VE"]},"ingredients":"Tortilla (VEHN\u00c4jauho, vesi, kasvirasva (palmu SG), stabilointiaineet (E 422, E 412), VEHN\u00c4proteiini, suola, papujauho, nostatusaineet (E 500, E 450), sokeri, glukoosisiirappi, happo (E 296), mallastettu VEHN\u00c4 ja OHRA, emulgointiaineet (E 471, E 473), s\u00e4il\u00f6nt\u00e4aineet (E 282, E 202), KAURAjauho, hiiva), tomaattimurska (tomaatti, tomaattimehu), vebablastu (VEHN\u00c4proteiini, rypsi\u00f6ljy, muunnettu perunat\u00e4rkkelys, herneproteiini, sipuli, kookosrasva, riisi, aromit (mm. savu), emulgointiaine (auringonkukkalesitiini), maltodekstriini (maissi), dekstroosi (maissi), omenauute, elintarvikev\u00e4ri (paprikauute), tomaatti, musta papu,, maissi, chimichurri-kastike (rapsi\u00f6ljy, punaviinietikka, s\u00e4il\u00f6nt\u00e4aine (kaliumvetySULFIITTI), jalapenochili, viinietikka, mausteet, lehtipersilja, korianteri, happamuudens\u00e4\u00e4t\u00f6aine (E 330), s\u00e4il\u00f6nt\u00e4aine (E 211), natriumkloridi, kaliumkloridi, magnesiumsulfaatti, lysiinihydrokloridi, paakkuuntumisenestoaine (piioksidi), kaliumjodidi, savustettu paprikajauhe, sipuli, tomaattipyre, rypsi\u00f6ljy, chilpotle salsa (tomaattisose, savustettu jalapenochili, sipuli, viinietikka, rapsi\u00f6ljy, paprika, oregano, laakerinlehti, timjami), omenaviinietikka, kasvisliemijauhe (suola, glukoosisiirappi, aromi, modifioitu t\u00e4rkkelys, maltodekstriini, rapsi\u00f6ljy, kasvistiivistett\u00e4 (porkkana, purjo, herkkusieni, parsakaali, paprika), etikkauute, rosmariiniuute.), valkosipulimurska (valkosipuli, valkoviinietikka, happamuudens\u00e4\u00e4t\u00f6aine (E 330), s\u00e4il\u00f6nt\u00e4aine (E 211)), Sambal Oelek (punainen chili, riisiviinietikka, SOIJAPAPU\u00d6LJY.), suola, paprikajauhe, chili, pippurijauhe (chilipippuri, paakkuuntumisenestoaine (piidioksidi)), juustokumina, mustapippuri.\nHiilijalanj\u00e4lki: 0, 62 kg CO 2e \/ annos"},{"sku":"1285","nutrition":"Energiaa 78 kcal (326 kJ), hiilihydraattia 5 g, rasvaa 3, 7 g, proteiinia 6, 3 g, suola 0, 8 g","price":{"name":"P\u00e4iv\u00e4n lounas","value":{"normal":"9.30","graduate":"5.55","contract":"7.30","student_hyy":"2.95","student":"2.95","graduate_hyy":"5.55"}},"name":"Kanakebabia tomaattikastikeessa ja Iskender kastiketta","ingredients":"Kanakebab (broilerinliha (SUOMI), jodioitu suola, hiivauute, maltodekstriini, dekstroosi, valkosipuli, mustapippuri, chili, aromi, aromivahvenne (E 631), stabilointiaineet (E 450, E 451).), sipuli, tomaatti, viinietikka, suola, sokeri, mausteet (mustapippuri, laakerinlehti, oregano)), valkoviinietikka, happamuudens\u00e4\u00e4t\u00f6aine (E 330), s\u00e4il\u00f6nt\u00e4aine (E 211)), chili, maissit\u00e4rkkelys, rypsi\u00f6ljy, sokeri, pansuola, mustapippuri, juustokumina, korianteri, valkopippuri., Iskender kastike : Turkkilainen jogurtti (past\u00f6roitu RASVATON MAITO ja KERMA, RASVATON MAITOJAUHE, hapate.), valkosipuli, sokeri, suola, minttu., Lisuke : Jalapenochili., Hiilijalanj\u00e4lki: 0, 59 kg CO 2e \/ annos","meta":{"0":["G","L","[S]"],"1":["maitoa"],"2":[]}},{"nutrition":"Energiaa 168kcal (702kJ), hiilihydraattia 14g, rasvaa 9g, proteiinia 7, 6g, suolaa 0, 57g.","sku":"3373","name":"Kalapuikot, sitruunakastiketta","price":{"value":{"student":"2.95","graduate_hyy":"5.55","contract":"7.30","student_hyy":"2.95","normal":"9.30","graduate":"5.55"},"name":"P\u00e4iv\u00e4n lounas"},"ingredients":"Kalapuikko (TURSKA, VEHN\u00c4JAUHO, vesi, rapsi\u00f6ljy, VEHN\u00c4T\u00c4RKKELYS, mausteseos (sis. KALAA, VEHN\u00c4GLUTEENIA), sakeuttamisaine (E 461), suola, hiiva, kasvikuitu, sakeuttamisaine (E 464), kurkuma, paprika)), Kasvirasvasekoite (Rasvaton MAITO, vesi, rapsi\u00f6ljy, muunnettu maissi- ja tapiokat\u00e4rkkelys, emulgointiaine (E 472e), aromi, v\u00e4ri (betakaroteeni).), Sitruunat\u00e4ysmehu (Sitruunamehutiiviste, sokeri, s\u00e4il\u00f6nt\u00e4aine (E 202)), Margariini (Kasvirasva (palmu\u00f6ljy (SG), kookosrasva), rypsi\u00f6ljy, vesi, suola, emulgointiaineet (E 471, E 472c, E 322 auringonkukkalesitiini), happamuudens\u00e4\u00e4t\u00f6aineet (E 330, E 500), aromi, A- ja D 2-vitamiini, v\u00e4ri (E 160a).), Vehn\u00e4jauho (VEHN\u00c4, jauhonparanne (askorbiinihappo)), Sokeri, hieno (Sokeri), kasvisliemijauhe v\u00e4h\u00e4suolainen (Suola, glukoosisiirappi, aromi, sipuli, modifioitu t\u00e4rkkelys, maltodekstriini, rapsi\u00f6ljy, kasvistiivistett\u00e4 (porkkana, purjo, herkkusieni, parsakaali, paprika), mausteet, sokeri, etikkauute, rosmariiniuute.), Kurkuma, Suola (Natriumkloridi, kaliumkloridi, magnesiumsulfaatti, lysiinihydrokloridi, paakkuuntumisenestoaine (piioksidi), kaliumjodidi.), Valkopippuri.\nHiilijalanj\u00e4lki: 0, 80 kg CO 2e \/ annos","meta":{"1":["gluteenia","kalaa","maitoa"],"2":["Vastuullisesti kalastettua"],"0":["L","[S]"]}},{"meta":{"0":["[S]","VE"],"1":["gluteenia","maap\u00e4hkin\u00e4\u00e4","seesaminsiemeni\u00e4","sinapinsiemeni\u00e4","sinappia","soijaa"],"2":[]},"ingredients":"Nyht\u00f6kaura (Vesi, KAURA (gluteeniton t\u00e4ysjyv\u00e4KAURAjauho*, gluteeniton KAURAlese*), herneproteiini, h\u00e4rk\u00e4papuproteiini, rapsi\u00f6ljy), Amerikansalaatti, Porkkanaraaste, Mango, Chili hummus (Kikherne, vesi, SEESAMINSIEMENTAHNA, rapsi\u00f6ljy, sitruunat\u00e4ysmehu, valkosipuli, mausteet (mm. chili, kurkuma, mustapippuri), merisuola, sokeri, s\u00e4il\u00f6nt\u00e4aineet (sitruunahappo, kaliumsorbaatti).), kaurasuurimo gluteeniton, Punasipuli, Suolap\u00e4hkin\u00e4 (Maap\u00e4hkin\u00e4, kasvi\u00f6ljy (auringonkukka), suola.), Sataykastike (Vesi, MAAP\u00c4HKIN\u00c4, sokeri, kookosmaito, suola, auringonkukka\u00f6ljy, valkosipuli, soijapaputahna (SOIJAPAPU, suola, VEHN\u00c4JAUHO, riisijauho, sokeri, vesi), tamarindiuute, kuivattu punainen chili, SEESAMI\u00d6LJY, curryjauhe (SINAPINSIEMEN, korianteri, kurkuma, sarviapilansiemen, VEHN\u00c4JAUHO, suola, chili, fenkoli, juustokumina, mustapippuri), juustokumina, soijakastike (SOIJAPAPU-UUTE, suola, VEHN\u00c4JAUHO, sokeri), SOIJAPROTEIINI, arominvahvenne (E 635).), salaattisekoitus (romainesalaatti, friseesalaatti, punasalaatti ja vuonankaali), punaviinietikka (punaviinietikka, s\u00e4il\u00f6nt\u00e4aine (kaliumvetySULFIITTI)), Korianteri, Sokeri, Suola (natriumkloridi, kaliumkloridi, magnesiumsulfaatti, lysiinihydrokloridi, paakkuuntumisenestoaine (piioksidi), kaliumjodidi.)\nHiilijalanj\u00e4lki: 0, 52 kg CO 2e \/ annos","price":{"value":{"graduate":"5.55","normal":"9.30","contract":"7.30","student_hyy":"2.95","graduate_hyy":"5.55","student":"2.95"},"name":"Vegaani"},"name":"Satay Nyhtis Bowl","nutrition":"124 kcal \/ 517 kJ, Rasva 5, 23 g, Hiilihydraatti 10, 12 g, Proteiini 7, 34 g, Suola 0, 44 g","sku":"20003"},{"name":"Puolukkamousse kaurakeksimuruilla","price":{"name":"Makeasti","value":{"contract":"1.50","student_hyy":"1.50","normal":"1.50","graduate":"1.50","graduate_hyy":"1.50","student":"1.50"}},"sku":"8206","nutrition":"Energia 207kcal \/ 865kJ, Rasva 12, 08g, Hiilihydraatti 21, 32g, Proteiini 2, 19g, Suola 0, 17g","meta":{"0":["VE"],"1":["gluteenia","soijaa"],"2":[]},"ingredients":"Vispautuva Kauravalmiste (Vesi, kokonaan kovetetut kasvi\u00f6ljyt (kookos, rypsi), sokeri, KAURAuute , emulgointiaineet (E 435, E 475), stabilointiaine (E 464), happamuudens\u00e4\u00e4t\u00f6aine (natriumsitraatti), suola, v\u00e4ri (karotenoidit).), Puolukka, Greek Style soijavalmiste maustamaton (vesi, kuoritut SOIJAPAVUT, sokeri, trikalsiumsitraatti, stabilointiaine (pektiini), happamuudens\u00e4\u00e4t\u00f6aineet (natriumsitraatti , sitruunahappo), luontainen aromi, merisuola, hapettumisenestoaineet (tokoferoliuute, askorbiinihapon rasvahappoesterit), vitamiinit (B 12, D 2), hapate), Sokeri, Kaurakeksi (KAURAHIUTALE, sokeri, auringonkukka\u00f6ljy, VEHN\u00c4JAUHO, T\u00c4YSJYV\u00c4VEHN\u00c4JAUHO, sokerisiirappi, nostatusaine (natriumkarbonaatti), suola).\nHiilijalanj\u00e4lki: 0, 06 kg CO 2e \/ annos"}],"message":null,"date":"Pe 01.08."},{"data":[],"date":"La 02.08.","message":null},{"message":null,"date":"Su 03.08.","data":[]},{"message":null,"date":"Ma 04.08.","data":[]},{"data":[],"message":null,"date":"Ti 05.08."},{"message":null,"date":"Ke 06.08.","data":[]},{"message":null,"date":"To 07.08.","data":[]},{"date":"Pe 08.08.","message":null,"data":[]},{"message":null,"date":"La 09.08.","data":[]},{"data":[],"date":"Su 10.08.","message":null}]}},{"id":1363,"title":"Physicum","slug":"physicum","permalink":"https:\/\/unicafe.fi\/restaurants\/physicum\/","location":[{"id":45,"name":"Kumpula"}],"address":"Gustaf H\u00e4llstr\u00f6min katu 2","visitingHours":"3","blocksHtml":"","menuData":{"name":"Physicum","areacode":2,"id":12,"phone":"050 440 9379","email":"physicum@unicafe.fi","feedback_address":"https:\/\/smiley.link\/LGNJTSSD","description":"Esteett\u00f6myys<br \/>-Esteet\u00f6n kulku p\u00e4\u00e4ovien kautta.","visitingHours":{"business":{"name":null,"items":[{"closedException":true,"label":"Ma\u2013Pe","hours":"08:00\u201315:00"},{"closedException":true,"label":"La\u2013Su","hours":"Suljettu"},{"exception":true,"label":"16.6.\u201325.8.","hours":"Suljettu"},{"exceptionUndefinedTime":false,"label":"Ma-Su","hours":"Suljettu"}]},"breakfast":false,"bistro":false,"lounas":{"name":null,"items":[{"closedException":false,"label":"Ma\u2013To","hours":"10:00\u201315:00"},{"closedException":false,"label":"Pe\u2013Su","hours":"Suljettu"},{"exceptionUndefinedTime":false,"label":"Ma-Su","hours":"Suljettu"}]}},"menus":[{"date":"Ma 28.07.","message":null,"data":[]},{"data":[],"date":"Ti 29.07.","message":null},{"message":null,"date":"Ke 30.07.","data":[]},{"data":[],"date":"To 31.07.","message":null},{"date":"Pe 01.08.","message":null,"data":[]},{"data":[],"message":null,"date":"La 02.08."},{"data":[],"date":"Su 03.08.","message":null},{"data":[],"date":"Ma 04.08.","message":null},{"message":null,"date":"Ti 05.08.","data":[]},{"data":[],"message":null,"date":"Ke 06.08."},{"data":[],"message":null,"date":"To 07.08."},{"date":"Pe 08.08.","message":null,"data":[]},{"data":[],"date":"La 09.08.","message":null},{"data":[],"message":null,"date":"Su 10.08."}]}},{"id":1362,"title":"Topelias","slug":"pesco-vege-topelias","permalink":"https:\/\/unicafe.fi\/restaurants\/pesco-vege-topelias\/","location":[{"id":44,"name":"Keskusta"}],"address":"Unioninkatu 38, D-rappu","visitingHours":"3","blocksHtml":"","menuData":{"areacode":1,"name":"Topelias","id":7,"phone":"050 5576083","email":"topelias@unicafe.fi","feedback_address":"","description":"Esteett\u00f6myys<br \/>- sis\u00e4\u00e4nk\u00e4ynti : opastettu reitti pihalta, rappu E I , hissi.<br \/>- inva-wc aulassa.","visitingHours":{"business":{"name":null,"items":[{"closedException":true,"label":"Ma\u2013Pe","hours":"09:00\u201315:00"},{"closedException":true,"label":"La\u2013Su","hours":"Suljettu"},{"exception":true,"label":"19.5.\u201324.8.","hours":"Suljettu"}]},"breakfast":false,"bistro":false,"lounas":{"name":null,"items":[{"closedException":false,"label":"Ma\u2013Pe","hours":"11:00\u201314:30"},{"closedException":false,"label":"La\u2013Su","hours":"Suljettu"},{"exceptionUndefinedTime":false,"label":"Ma-Su","hours":"Suljettu"}]}},"menus":[{"data":[],"date":"Ma 28.07.","message":null},{"message":null,"date":"Ti 29.07.","data":[]},{"data":[],"message":null,"date":"Ke 30.07."},{"message":null,"date":"To 31.07.","data":[]},{"data":[],"date":"Pe 01.08.","message":null},{"message":null,"date":"La 02.08.","data":[]},{"data":[],"date":"Su 03.08.","message":null},{"message":null,"date":"Ma 04.08.","data":[]},{"data":[],"date":"Ti 05.08.","message":null},{"data":[],"date":"Ke 06.08.","message":null},{"data":[],"date":"To 07.08.","message":null},{"date":"Pe 08.08.","message":null,"data":[]},{"message":null,"date":"La 09.08.","data":[]},{"data":[],"date":"Su 10.08.","message":null}]}},{"id":1360,"title":"Olivia","slug":"olivia","permalink":"https:\/\/unicafe.fi\/restaurants\/olivia\/","location":[{"id":44,"name":"Keskusta"}],"address":"Siltavuorenpenger 5 A, 1 krs.","visitingHours":"2","blocksHtml":"","menuData":{"id":2,"areacode":1,"name":"Olivia","phone":"Ravintolaan 0505576052 (Ravintolap\u00e4\u00e4llikk\u00f6 0503471720)","email":"olivia@unicafe.fi","feedback_address":"https:\/\/smiley.link\/GLLMSGWL","description":"Esteett\u00f6myys<br \/>- sis\u00e4\u00e4nk\u00e4ynti : p\u00e4\u00e4ovesta (Siltavuorenpenger), jota ennen nousu luiskaa pitkin, ovella pieni kynnys.<br \/>- inva-wc ovesta vasemmalla naulakoiden luona.","visitingHours":{"business":{"name":null,"items":[{"closedException":true,"label":"Ma\u2013Pe","hours":"08:30\u201315:00"},{"closedException":true,"label":"La\u2013Su","hours":"Suljettu"},{"exception":true,"label":"16.6.\u201310.8.","hours":"Suljettu"},{"exceptionUndefinedTime":false,"label":"Ma-Su","hours":"Suljettu"}]},"breakfast":false,"bistro":false,"lounas":{"name":null,"items":[{"closedException":true,"label":"Ma\u2013Pe","hours":"11:00\u201314:30"},{"closedException":true,"label":"La\u2013Su","hours":"Suljettu"},{"exception":true,"label":"16.6.\u201310.8.","hours":"Suljettu"},{"exceptionUndefinedTime":false,"label":"Ma-Su","hours":"Suljettu"}]}},"menus":[{"date":"Ma 28.07.","message":null,"data":[{"name":"Ravintola kes\u00e4tauolla ,tavataan 11.8 Oikein ihanaa kes\u00e4\u00e4 :)","price":{"name":"Tiedoitus","value":{"graduate_hyy":"0.00","student":"0.00","normal":"0.00","graduate":"0.00","contract":"0.00","student_hyy":"0.00"}},"nutrition":"","sku":"Ravintola kes\u00e4tauolla ,tavataan 11.8 Oikein ihanaa kes\u00e4\u00e4 :)","meta":{"2":[],"1":[],"0":[]},"ingredients":""}]},{"data":[],"message":null,"date":"Ti 29.07."},{"message":null,"date":"Ke 30.07.","data":[]},{"date":"To 31.07.","message":null,"data":[]},{"data":[],"message":null,"date":"Pe 01.08."},{"message":null,"date":"La 02.08.","data":[]},{"date":"Su 03.08.","message":null,"data":[]},{"data":[{"ingredients":"","meta":{"0":[],"1":[],"2":[]},"sku":"Ravintola kiinni ! Tervetuloa 11.8 :)","nutrition":"","price":{"value":{"student":"0.00","graduate_hyy":"0.00","student_hyy":"0.00","contract":"0.00","normal":"0.00","graduate":"0.00"},"name":"Tiedoitus"},"name":"Ravintola kiinni ! Tervetuloa 11.8 :)"}],"date":"Ma 04.08.","message":null},{"date":"Ti 05.08.","message":null,"data":[]},{"data":[],"message":null,"date":"Ke 06.08."},{"data":[],"date":"To 07.08.","message":null},{"data":[],"message":null,"date":"Pe 08.08."},{"data":[],"message":null,"date":"La 09.08."},{"data":[],"message":null,"date":"Su 10.08."}]}},{"id":1359,"title":"Mets\u00e4talo","slug":"metsatalo","permalink":"https:\/\/unicafe.fi\/restaurants\/metsatalo\/","location":[{"id":44,"name":"Keskusta"}],"address":"Fabianinkatu 39","visitingHours":"5","blocksHtml":"","menuData":{"id":1,"name":"Mets\u00e4talo","areacode":1,"phone":"0505576081 ravintolap\u00e4\u00e4llikk\u00f6 0505367656","email":"metsatalo@unicafe.fi","feedback_address":"https:\/\/smiley.link\/BTCHBXTD","description":"Esteett\u00f6myys<br \/>- sis\u00e4\u00e4nk\u00e4ynti : pihan puolelta, kulku ravintolakerrokseen hissill\u00e4 (alhaalla matala kynnys)<br \/>- inva-wc ovesta oikealla naulakoiden luona.","visitingHours":{"business":{"name":null,"items":[{"closedException":false,"label":"Ma\u2013Pe","hours":"08:30\u201315:00"},{"closedException":false,"label":"La\u2013Su","hours":"Suljettu"},{"exception":true,"label":"19.6.","hours":"08:30\u201314:00"},{"exception":true,"label":"20.6.\u201310.8.","hours":"Suljettu"},{"exceptionUndefinedTime":false,"label":"Ma-Su","hours":"Suljettu"},{"exceptionUndefinedTime":false,"label":"Ma-Su","hours":"Suljettu"},{"exceptionUndefinedTime":false,"label":"Ma-Su","hours":"Suljettu"},{"exceptionUndefinedTime":false,"label":"Ma-Su","hours":"Suljettu"}]},"breakfast":false,"bistro":false,"lounas":{"name":null,"items":[{"closedException":false,"label":"Ma\u2013Pe","hours":"10:30\u201314:30"},{"closedException":false,"label":"La\u2013Su","hours":"Suljettu"},{"exception":true,"label":"19.6.","hours":"10:30\u201314:00"},{"exceptionUndefinedTime":false,"label":"Ma-Su","hours":"Suljettu"},{"exceptionUndefinedTime":false,"label":"Ma-Su","hours":"Suljettu"}]}},"menus":[{"message":null,"date":"Ma 28.07.","data":[]},{"data":[],"date":"Ti 29.07.","message":null},{"date":"Ke 30.07.","message":null,"data":[]},{"data":[],"date":"To 31.07.","message":null},{"data":[],"date":"Pe 01.08.","message":null},{"message":null,"date":"La 02.08.","data":[]},{"message":null,"date":"Su 03.08.","data":[]},{"data":[],"date":"Ma 04.08.","message":null},{"message":null,"date":"Ti 05.08.","data":[]},{"date":"Ke 06.08.","message":null,"data":[]},{"date":"To 07.08.","message":null,"data":[]},{"data":[],"date":"Pe 08.08.","message":null},{"date":"La 09.08.","message":null,"data":[]},{"message":null,"date":"Su 10.08.","data":[]}]}},{"id":1358,"title":"Meilahti","slug":"meilahti","permalink":"https:\/\/unicafe.fi\/restaurants\/meilahti\/","location":[{"id":48,"name":"Meilahti"}],"address":"Haartmaninkatu 3","visitingHours":"3","blocksHtml":"","menuData":{"areacode":3,"name":"Meilahti","id":13,"phone":"Keitti\u00f6mestari +358 50 310 7234, Ravintolap\u00e4\u00e4llikk\u00f6 +358 50 468 0360","email":"meilahti@unicafe.fi","feedback_address":"https:\/\/smiley.link\/GXXBZHCJ","description":"Esteett\u00f6myys<br \/>-sis\u00e4\u00e4nk\u00e4ynti : p\u00e4\u00e4ovesta, py\u00f6r\u00e4tuolireitti kiinte\u00e4\u00e4 luiskaa pitkin.","visitingHours":{"business":{"name":null,"items":[{"closedException":false,"label":"Ma\u2013Pe","hours":"09:00\u201315:00"},{"closedException":false,"label":"La\u2013Su","hours":"Suljettu"},{"exception":true,"label":"16.6.\u20138.8.","hours":"09:00\u201314:00"}]},"breakfast":{"name":"Breakfast","items":[{"closedException":false,"label":"Ma\u2013Pe","hours":"\u2013"},{"closedException":false,"label":"La\u2013Su","hours":"Suljettu"},{"exceptionUndefinedTime":false,"label":"Ma-Su","hours":"Suljettu"}]},"bistro":false,"lounas":{"name":null,"items":[{"closedException":false,"label":"Ma\u2013Pe","hours":"10:30\u201315:00"},{"closedException":false,"label":"La\u2013Su","hours":"Suljettu"},{"exception":true,"label":"16.6.\u20138.8.","hours":"10:30\u201314:00"}]}},"menus":[{"data":[{"ingredients":"Kikherne, sipuli, rypsi\u00f6ljy, vesi, persilja, pepperonipaprika, herneproteiini, korianteri, valkosipuli, sakeuttamisaineet (E 461, E 407a, E 508), jodioitu suola, nostatusaine (E 500), sitruunamehu, juustokumina, sokeri, chilijauhe, mustapippuri., Tzaziki - soijajogurtti : Soijajogurtti (SOIJApapu (luomu), glukoosi, maissit\u00e4rkkelys, kalsiumsitraatti, pektiini, suola, hapate. ), kurkku, minttu, valkosipulimurska (sokeri, valkoviinietikka, happamuudens\u00e4\u00e4t\u00f6aine (E 330), s\u00e4il\u00f6nt\u00e4aine (E 211)), mustapippuri, pansuola (sulfaatti).\nHiilijalanj\u00e4lki: 0, 57 kg CO 2e \/ annos","meta":{"0":["G","VE"],"1":["sinapinsiemeni\u00e4","sinappia"],"2":[]},"nutrition":"Energia 258kcal \/, 1078kJ, Rasva 22, 74g, Hiilihydraatti 8, 20g, Proteiini 4, 07g, Suola 0, 79g","sku":"7613","price":{"name":"Vegaani","value":{"student":"2.95","graduate_hyy":"5.55","normal":"9.30","graduate":"5.55","contract":"7.30","student_hyy":"2.95"}},"name":"Falafelpy\u00f6ryk\u00f6it\u00e4 & tzatziki-soijajugurttia"},{"sku":"9018","nutrition":"Energia 56kcal \/ 236kJ, Rasva 0, 56g, Hiilihydraatti 4, 82g, Proteiini 5, 20g, Suola 0, 68g","price":{"value":{"student":"2.95","graduate_hyy":"5.55","graduate":"5.55","normal":"9.30","student_hyy":"2.95","contract":"7.30"},"name":"Vegaani"},"name":"Kimchipata","ingredients":"Fermentoitu h\u00e4rk\u00e4papu (vesi, merisuola ja E 150d), vesi, kimchi (kiinankaali, porkkana, valkoinen retiisi, sokeri, suola, gochugaru-chili, valkosipuli, sipuli, kuivattu ruohosipuli, paprikauute, jauhettu inkiv\u00e4\u00e4ri), kiinankaali,, valkoviinietikka (valkoviinietikka, hapettumisenestoaine (kaliumvetySULFIITTI)), soijakastike (sokerisiirappi, hydrolysoitu SOIJA, v\u00e4ri (E 150c), sakeuttamisaine (E 407, E 412, E 466), happamuudens\u00e4\u00e4t\u00f6aine ( E 330), aromi (ammoniumkloridi), s\u00e4il\u00f6nt\u00e4aine (E 211)), tomaattipyre, purjosipuli, korianteri, savuchilikastike (habanero, porkkana, sokeriruokoetikka, chipotle, lime, happamuudens\u00e4\u00e4t\u00f6aineet (etikkahappo, sitruunahappo), valkosipuli, passiohedelm\u00e4mehu, sakeuttamisaine (ksantaanikumi).), maissit\u00e4rkkelys, inkiv\u00e4\u00e4ritahna (inkiv\u00e4\u00e4ri, etikka, happamuudens\u00e4\u00e4t\u00f6aineet (sitruunahappo, askorbiinihappo).), kasvisliemijauhe (glukoosisiirappi, aromi, modifioitu t\u00e4rkkelys, maltodekstriini, rapsi\u00f6ljy, kasvistiivistett\u00e4 (porkkana, purjo, herkkusieni, parsakaali, paprika), mausteet, etikkauute, rosmariiniuute.), valkosipulimurska (valkosipuli, valkoviinietikka, happamuudens\u00e4\u00e4t\u00f6aine (E 330), s\u00e4il\u00f6nt\u00e4aine (E 211))., Hiilijalanj\u00e4lki: 0, 42 kg CO 2e \/ annos","meta":{"0":["G","[S]","VE"],"1":["soijaa","sulfiitteja"],"2":["Ilmastovalinta"]}},{"ingredients":"Kalakepukka: LOHI, peruna, rapsi\u00f6ljy, perunahiutale, sipuli, sitruskuitu, ruohosipuli, sakeuttamisaineet (E 461, E 407a), tilli, sitruunamehutiiviste, jodioitu suola, valkopippuri.\nChimicurri-kermaviili: past\u00f6roitu KERMA, hapate (MAITO), persilja, rapsi\u00f6ljy, sitruunamehutiiviste, vesi, kuivattu sipuli, chili, kuivattu valkosipuli, suola, s\u00e4il\u00f6nt\u00e4aineet (E 202, E 224 kaliumdiSULFIITTI), Natriumkloridi, kaliumkloridi, magnesiumsulfaatti, lysiinihydrokloridi, paakkuuntumisenestoaine (piioksidi), kaliumjodidi., Sokeri\nHiilijalanj\u00e4lki: 0, 87 kg CO 2e \/ annos","meta":{"0":["G","L"],"1":["kalaa","maitoa","sulfiitteja"],"2":[]},"sku":"7599","nutrition":"Energia 180kcal \/ 753kJ, Rasva 14, 97g, Hiilihydraatti 4, 85g, Proteiini 7, 24g, Suola 0, 69g","name":"Kalakepukoita &, Chimicurri-kermaviili\u00e4","price":{"value":{"contract":"7.30","student_hyy":"2.95","graduate":"5.55","normal":"9.30","graduate_hyy":"5.55","student":"2.95"},"name":"P\u00e4iv\u00e4n lounas"}},{"nutrition":"Energia 117 kcal (492kj), hiilihydraatti 4, 5 g, rasva 7, 8 g, proteiini 7g, suolaa 0, 43g.","sku":"6664","name":"Tomaattinen kana-tuorejuustokastike","price":{"name":"P\u00e4iv\u00e4n lounas","value":{"graduate_hyy":"5.55","student":"2.95","graduate":"5.55","normal":"9.30","contract":"7.30","student_hyy":"2.95"}},"ingredients":"KANA (SUOMI), paprika, yrttituoreJUUSTO (Past\u00f6roitu MAITO, rasvaton MAITOjauhe, suola, sakeuttamisaineet (E 440, E 412), mauste- ja yrttiseos [mm. basilika, rakuuna, oregano, persilja, timjami, salvia, sipuli], valkosipuli, s\u00e4il\u00f6nt\u00e4aine (E 202 kaliumsorbaatti), hapate), tomaatti, kes\u00e4kurpitsa, sipuli, rypsi\u00f6ljy, maissit\u00e4rkkelys, basilika, sokeri, pansuola, kanaliemi (glukoosisiirappi, suola, kana-aromi, kananrasvaa, kananlihaa, happamuudens\u00e4\u00e4t\u00f6aineet (sitruunahappo, maitohappo, kalsiumlaktaatti), valkopippuri, kurkuma, lipstikka), rosmariiniuute, mustapippuri, timjami., Hiilijalanj\u00e4lki: 0, 73 kg CO 2e \/ annos","meta":{"2":[],"1":["maitoa"],"0":["G","L","[S]"]}},{"sku":"Lis\u00e4ke","nutrition":"Energiaa 116kcal, hiilihydraattia 25g, rasvaa 0g, proteiinia 3g, suolaa 0g.","price":{"value":{"student_hyy":"0.00","contract":"0.00","graduate":"0.00","normal":"0.00","graduate_hyy":"0.00","student":"0.00"},"name":"Lisuke"},"name":"H\u00f6yrytetty\u00e4 riisi\u00e4","ingredients":"Riisi\u00e4, vett\u00e4.","meta":{"2":[],"1":[],"0":["G","VE"]}}],"message":null,"date":"Ma 28.07."},{"message":null,"date":"Ti 29.07.","data":[{"price":{"name":"Vegaani","value":{"normal":"9.30","graduate":"5.55","student_hyy":"2.95","contract":"7.30","student":"2.95","graduate_hyy":"5.55"}},"name":"Makaronilaatikko","sku":"7568","nutrition":"Energia 122kcal \/ 509 kJ, Rasva 5, 53g, Hiilihydraatti 13, 63g, Proteiini 3, 9g, Suola 0, 47g","meta":{"1":["gluteenia"],"2":["Ilmastovalinta"],"0":["[S]","VE"]},"ingredients":"KAURAruoka gluteeniton (KAURApohja (vesi, gluteeniton t\u00e4ysjyv\u00e4KAURA), rypsi\u00f6ljy, muunnetut t\u00e4rkkelykset, stabilointiaine (guarkumi), happamuudens\u00e4\u00e4t\u00f6aine (natriumsitraatti), emulgointiaine (E 472e).), makaroni (VEHN\u00c4JAUHO, DURUMVEHN\u00c4JAUHO, vesi.), jauhismuru (herneproteiini (Vesi, herneproteiini, rypsi\u00f6ljy, suola, aromit ja mausteet (musta ja valkopippuri), punajuuri jauhe, karrageeni.)), Sipuli, Suola (Natriumkloridi, kaliumkloridi, magnesiumsulfaatti, lysiinihydrokloridi, paakkuuntumisenestoaine (piioksidi), kaliumjodidi.), Paprikajauhe (Paprika), Mustapippuri., Hiilijalanj\u00e4lki: 0, 38 kg CO 2e \/ annos"},{"name":"Punajuuripy\u00f6ryk\u00e4t, soijajogurttikastiketta","price":{"name":"Vegaani","value":{"contract":"7.30","student_hyy":"2.95","normal":"9.30","graduate":"5.55","graduate_hyy":"5.55","student":"2.95"}},"sku":"5647","nutrition":"Energiaa 153kcal, hiilihydraattia 8g, rasvaa 10g, proteiinia 6g, suolaa 0, 7g.","meta":{"2":["Ilmastovalinta"],"1":["soijaa"],"0":["G","[S]","VE"]},"ingredients":"Punajuuripy\u00f6rykk\u00e4 (sipuli, peruna, rypsi\u00f6ljy, herneproteiini, kurpitsansiemen,, kookos\u00f6ljy, pellavansiemen, muunnettu perunat\u00e4rkkelys, maissit\u00e4rkkelys, sokeri, sakeuttamisaineet (E 461, E 407a, E 415), jodioitu suola, sitruunamehutiiviste, mustapippuri.).\nSoijajogurtti (SOIJApapu, glukoosi, maissit\u00e4rkkelys, happamuudens\u00e4\u00e4t\u00f6aine (kalsiumsitraatti), sakeuttamisaine (pektiini), suola, hapate. , sitruunat\u00e4ysmehu (sokeri, s\u00e4il\u00f6nt\u00e4aineet (E 202, E 211),, persilja, pansuola (sulfaatti), mustapippuri., Hiilijalanj\u00e4lki: 0, 37 kg CO 2e \/ annos"},{"meta":{"2":["Vastuullisesti kalastettua"],"1":["gluteenia","kalaa","maitoa","soijaa"],"0":["L","[S]"]},"ingredients":"Ruodoton TURSKAfilee, vesi, VEHN\u00c4JAUHO, maissijauho, t\u00e4rkkelys, suola, hiiva, sipuli, leivinjauhe (E 450, E 500), aromi, dekstroosi. Friteerattu rapsi\u00f6ljyss\u00e4., Ponzukastike: past\u00f6roitu KERMA, hapate (MAITO), Vesi, SOIJAPAPU, merisuola, koji. (SOIJApapu), Ruokosokeri, vesi, appelsiinimehutiiviste, happamuudens\u00e4\u00e4t\u00f6aine: sitruunahappo, aromit, v\u00e4riaineet: beetakaroteeni, E 163, stabi lointiaine: E 445., Sokeri, Natriumkloridi, kaliumkloridi, magnesiumsulfaatti, lysiinihydrokloridi, paakkuuntumisenestoaine (piioksidi), kaliumjodidi.\nHiilijalanj\u00e4lki: 0, 88 kg CO 2e \/ annos","price":{"value":{"graduate_hyy":"5.55","student":"2.95","graduate":"5.55","normal":"9.30","contract":"7.30","student_hyy":"2.95"},"name":"P\u00e4iv\u00e4n lounas"},"name":"Tempuraturskaa & Ponzukastiketta","sku":"7593","nutrition":"Energia 177kcal \/ 739kJ, Rasva 11, 52g, Hiilihydraatti, 8, 91g, Proteiini 8, 83g, Suola 0, 90g"},{"price":{"value":{"student_hyy":"2.95","contract":"7.30","normal":"9.30","graduate":"5.55","student":"2.95","graduate_hyy":"5.55"},"name":"P\u00e4iv\u00e4n lounas"},"name":"Lihapy\u00f6ryk\u00e4t, pippurikastiketta","sku":"3172","nutrition":"Energiaa 144kcal (604kJ), hiilihydraattia 11g, rasvaa 8g, proteiinia 6g.","meta":{"0":["G","L"],"2":[],"1":["kananmunaa","maitoa"]},"ingredients":"Suomalainen sianliha, peruna, sipuli, KANANMUNA, vesi, perunakuitu, suola, stabilointiaine (E 450), mausteet (mustapippuri, curry, valkopippuri, chili, cayennepippuri). (muna),\nKastike: Vesi, Margariini, Kasvirasvasekoite (Rasvaton MAITO (Suomi), vesi, rapsi\u00f6ljy, muunnettu maissi- ja tapiokat\u00e4rkkelys, emulgointiaine (E 472e), aromi, v\u00e4ri (betakaroteeni)., sipuli, vesi, Valkopippuri, suola, mustapippuri, viherpippuri, ros\u00e9pippuri, maustepippuri, kastikkeenruskistaja, kanaliemijauhe (Glukoosisiirappi, suola, kana-aromi, kananrasvaa, kananlihaa, happamuudens\u00e4\u00e4t\u00f6aineet (sitruunahappo, maitohappo, kalsiumlakt aatti), mausteet (valkopippuri, kurkuma), mausteyrtti (lipstikka), rosmariiniuute.), maissit\u00e4rkkelys.\nHiilijalanj\u00e4lki: 0, 72 kg CO 2e \/ annos"},{"ingredients":"Suomalainen peruna","meta":{"2":[],"1":[],"0":["G","[S]","VE"]},"sku":"201","nutrition":"Energiaa 65kcal (271kJ), hiilihydraattia 13g, rasvaa 0g, proteiinia 2g","price":{"value":{"normal":"0.00","graduate":"0.00","contract":"0.00","student_hyy":"0.00","graduate_hyy":"0.00","student":"0.00"},"name":"Lisuke"},"name":"Keitetty\u00e4 ja kuorittua perunaa"},{"sku":"31","nutrition":"Energiaa 125 kcal (522 J), hiilihydraattia 19 g, rasvaa 2g, proteiinia 5g, suolaa 0g.","name":"Gluteenitonta kauraa","price":{"name":"Lisuke","value":{"student":"0.00","graduate_hyy":"0.00","normal":"0.00","graduate":"0.00","contract":"0.00","student_hyy":"0.00"}},"ingredients":"Ainesosat: Suomalainen gluteeniton kaurajyv\u00e4 (Gluteeniton t\u00e4ysjyv\u00e4KAURA).","meta":{"1":[],"2":["Ilmastovalinta"],"0":["G","VE"]}}]},{"message":null,"date":"Ke 30.07.","data":[{"ingredients":"Vebab (VEHN\u00c4proteiini, rypsi\u00f6ljy, muunnettu perunat\u00e4rkkelys, herneproteiini, sipuli, kookosrasva, mausteet (mm. valkos ipuli, oregano), riisi, aromit (mm. savu), suola, emulgointiaine (auringonkukkalesitiini), maltodekstriini (maissi), dekstroosi (mai ssi), omenauute, elintarvikev\u00e4ri (paprikauute)), tomaattimurska (tomaatti, tomaattimehu), Sipuli, tomaatti, Chili, maissit\u00e4rkkelys, rapsi\u00f6ljy, suola (Natriumkloridi, kaliumkloridi, magnesiumsulfaatti, lysiinihydrokloridi, paakkuuntumisenestoaine (piioksidi), kaliumjodidi), Sokeri, valkosipuli, vesi, sokeri, valkoviinietikka, happamuudens\u00e4\u00e4t\u00f6aine (E 330), s\u00e4il\u00f6nt\u00e4aine (E 211), jalopeno (jalapenochili, vesi, viinietikka, suola, sokeri, mausteet (mustapippuri, laakerinlehti, oregano)), Mustapippuri, Juustokumina., Korianteri, Hiilijalanj\u00e4lki: 0, 48 kg CO 2e \/ annos","meta":{"0":["VE"],"2":["Ilmastovalinta"],"1":["gluteenia"]},"sku":"7584","nutrition":"Energia 121kcal \/ 504kJ, Rasva 5, 35g, Hiilihydraatti 12, 38g, Proteiini, 7, 21g, Suola 0, 45g","price":{"name":"Vegaani","value":{"student":"2.95","graduate_hyy":"5.55","graduate":"5.55","normal":"9.30","contract":"7.30","student_hyy":"2.95"}},"name":"Vebabkastiketta"},{"meta":{"0":["G","VE"],"2":["Ilmastovalinta"],"1":[]},"ingredients":"MAROKKOLAISET KASVISPIHVIT\nKasvispihvit Marokko (porkkana (oranssi, keltainen), kikherne, paprika, rapsi\u00f6ljy, punainen linssi, esipaistettu sipuli (rapsi\u00f6ljy, auringonkukka\u00f6ljy), peruna, herneproteiini, mausteet (juustokumina, maustepippuri, muskottikukka, kardemumma, kaneli, neilikka, kurkuma, korianteri, kumina, fenkoli, muskottip\u00e4hkin\u00e4, mustapippuri), sakeuttamisaineet (E 461, E 407a), siirappi, persilja, jodioitu suola, kauraruoka gluteeniton (KAURApohja (vesi, gluteeniton t\u00e4ysjyv\u00e4KAURA), rypsi\u00f6ljy, muunnetut t\u00e4rkkelykset, stabilointiaine (guarkumi), happamuudens\u00e4\u00e4t\u00f6ain e (natriumsitraatti), emulgointiaine (E 472e).), vaalea balsamico (valkoviinietikka, ryp\u00e4lemehutiiviste, luontainen aromi, hapettumisenestoaine (RIKKIDIOKSIDI), maissit\u00e4rkkelys., CHERMOULA-KASTIKE\nChermoula-tahna (rapsi\u00f6ljy, lehtipersilja, korianteri, kumina, valkosipuli, vesi, sokeri, valkoviinietikka, happamuudens\u00e4\u00e4t\u00f6aine (E 330), s\u00e4il\u00f6nt\u00e4aine (E 211), natriumkloridi, kaliumkloridi, magnesiumsulfaatti, lysiinihydrokloridi, paakkuuntumisenestoaine (piioksidi), kaliumjodidi.), sipuli, sokeri, suola (natriumkloridi, kaliumkloridi, magnesiumsulfaatti, lysiinihydrokloridi, paakkuuntumisenestoaine (piioksidi), kaliumjodidi.), laakerinlehti., Hiilijalanj\u00e4lki: 0, 43 kg CO 2e \/ annos","name":"Marokkolaiset kasvispihvit & Chermoula-kastiketta","price":{"value":{"student":"2.95","graduate_hyy":"5.55","graduate":"5.55","normal":"9.30","student_hyy":"2.95","contract":"7.30"},"name":"Vegaani"},"nutrition":"Energia 163kcal \/ 684kJ, Rasva 11, 55g, Hiilihydraatti 9, 70g, Proteiini 3, 69g, Suola 0, 72g","sku":"9071"},{"nutrition":"Ravintoarvo 100g \/ energiaa 141 kcal (590 kJ), hiilihydraattia 3, 8 g, rasvaa 10, 4 g, proteiinia 8 g, suola 0, 8 g","sku":"1314","name":"Lohicarbonara","price":{"name":"P\u00e4iv\u00e4n lounas","value":{"student":"2.95","graduate_hyy":"5.55","normal":"9.30","graduate":"5.55","student_hyy":"2.95","contract":"7.30"}},"ingredients":"Kylm\u00e4savulohi (LOHI, suola, sokeri, etikka, savuaromi), kirjolohi (LOHI), Kasvirasvasekoite (Rasvaton MAITO, vesi, rapsi\u00f6ljy, muunnettu maissi- ja tapiokat\u00e4rkkelys, emulgointiaine (E 472e), aromi, v\u00e4ri (betakaroteeni).), Tuorejuusto (Past\u00f6roitu KERMA, rasvaton MAITOjauhe, sakeuttamisaineet (E 440, E 412), suola, s\u00e4il\u00f6nt\u00e4aine (E 202 kaliumsorbaatti), hapate.), Sipuli, Maissit\u00e4rkkelys, Rypsi\u00f6ljy (rapsi\u00f6ljy), Mustapippuri, kalaliemijauhe v\u00e4h\u00e4suolainen (Glukoosisiirappi, suola, kala-aromi (sis\u00e4lt\u00e4\u00e4 KALAA), palmurasva, sokeri, sipuli, happamuudens\u00e4\u00e4t\u00f6aineet (sitruunahappo, maitohappo, kalsiumlaktaatti), mausteet (valkopippuri, kurkuma), rosmariinitiiviste.), Hiilijalanj\u00e4lki: 0, 84 kg CO 2e \/ annos","meta":{"1":["kalaa","maitoa"],"2":["Vastuullisesti kasvatettua kalaa"],"0":["G","L","[S]"]}},{"meta":{"1":["maitoa"],"2":[],"0":["G","L"]},"ingredients":"Palvilapasuikale (SUOMI, viljaporsaanliha, vesi, stabilointiaineet (E 1412, E 450), jodioitu suola, sakeuttamisaineet (ksantaanikumi, E 407a), dekstroosi, hapettumisenestoaine E 301, s\u00e4il\u00f6nt\u00e4aine natriumnitriitti), Vesi, ruokaKERMA, maustamaton TUOREJUUSTO (Past\u00f6roitu KERMA, rasvaton MAITOjauhe, sakeuttamisaineet (E 440, E 412), suola, s\u00e4il\u00f6nt\u00e4aine (E 202 kaliumsorbaatti), hapate.), Sipuli, Pekonirouhe (SUOMI, viljaporsaanliha, vesi, jodioitu suola, dekstroosi, stabilointiaine E 450, hapettumisenestoaine E 301, s\u00e4il\u00f6nt\u00e4aine natriumnitriitti), Maissit\u00e4rkkelys, Rypsi\u00f6ljy (rapsi\u00f6ljy), kanaliemijauhe v\u00e4h\u00e4suolainen (Glukoosisiirappi, suola, aromit, kananrasva, broilerin nahka- ja lihajauhe, hapot (sitruunahappo, maitohappo, kalsiumlaktaatti), mausteet (valkopippuri, kurkuma), lipstikka.), Mustapippuri, valkosipuli., Hiilijalanj\u00e4lki: 0, 86 kg CO 2e \/ annos","name":"Kinkkucarbonara","price":{"value":{"student":"2.95","graduate_hyy":"5.55","normal":"9.30","graduate":"5.55","contract":"7.30","student_hyy":"2.95"},"name":"P\u00e4iv\u00e4n lounas"},"sku":"791","nutrition":"Energiaa 131kcal (549kJ), hiilihydraattia 3g, rasvaa 11g, proteiinia 6g, suola 0, 87g."},{"name":"Pastaa","price":{"name":"Lisuke","value":{"contract":"0.00","student_hyy":"0.00","normal":"0.00","graduate":"0.00","graduate_hyy":"0.00","student":"0.00"}},"sku":"Lis\u00e4ke","nutrition":"Energiaa 117kcal, hiilihydraattia 22g, rasvaa 1g, proteiinia 4g, suolaa 0g.","meta":{"0":[],"1":["gluteenia"],"2":[]},"ingredients":"PASTAA, vett\u00e4, rapsi\u00f6ljy\u00e4."},{"nutrition":"Energiaa 125 kcal (522 J), hiilihydraattia 19 g, rasvaa 2g, proteiinia 5g, suolaa 0g.","sku":"31","price":{"value":{"student":"0.00","graduate_hyy":"0.00","normal":"0.00","graduate":"0.00","student_hyy":"0.00","contract":"0.00"},"name":"Lisuke"},"name":"Gluteenitonta kauraa","ingredients":"Ainesosat: Suomalainen gluteeniton kaurajyv\u00e4 (Gluteeniton t\u00e4ysjyv\u00e4KAURA).","meta":{"0":["G","[S]","VE"],"2":["Ilmastovalinta"],"1":[]}}]},{"message":null,"date":"To 31.07.","data":[{"price":{"name":"Vegaani","value":{"normal":"9.30","graduate":"5.55","contract":"7.30","student_hyy":"2.95","graduate_hyy":"5.55","student":"2.95"}},"name":"Kasvisjalapenonugetteja ja Chipotle-majoneesia","nutrition":"Energia 285kcal \/ 1192kJ, Rasva 22, 79g, Hiilihydraatti 14, 08g, Proteiini 6, 74g, Suola 1, 01g","sku":"9044","meta":{"0":["G","VE"],"2":["Ilmastovalinta"],"1":["sinapinsiemeni\u00e4","soijaa"]},"ingredients":"KASVISJALAPENONUGETIT\nKasvis-jalapenonuggetit (Vesi, SOIJAproteiini, punainen paprika, rapsi\u00f6ljy, gluteeniton korppujauho (riisijauho, kikhernejauho, maissit\u00e4rkkelys, suola, dekstroosi), peruna- ja maissit\u00e4rkkelys, kookos\u00f6ljy, jalapeno, hernet\u00e4rkkelys, mausteet (valkosipuli, muskottip\u00e4hkin\u00e4, valkopippuri, mustapippuri, liperinjuuri), sakeuttamisaineet (E 461, E 407a, E 415), aromit., CHIPOTLE-MAJONEESI\nRapsi\u00f6ljy, vesi, etikka, sokeri, suola, muunnettu maissit\u00e4rkkelys, sakeuttamisaine (E 415), SINAPINSIEMEN, dekstroosi, v\u00e4ri (E 160a)., tomaattisose (vesi, tiivistetty tomaatti), savustettu jalapenochili, sokeri, sipuli, viinietikka, suola, rapsi\u00f6ljy, paprika, oregano, laakerinlehti, timjami, valkosipuli., Hiilijalanj\u00e4lki: 0, 48 kg CO 2e \/ annos"},{"price":{"name":"Vegaani","value":{"graduate_hyy":"5.55","student":"2.95","normal":"9.30","graduate":"5.55","student_hyy":"2.95","contract":"7.30"}},"name":"Tofu-p\u00e4hkin\u00e4kastiketta","nutrition":"Energiaa 110kcal (459kJ), hiilihydraattia 4g, rasvaa 8g, proteiinia 6g.","sku":"1024","meta":{"2":["Ilmastovalinta","Sis\u00e4lt\u00e4\u00e4 luomua","Sis\u00e4lt\u00e4\u00e4 Reilun kaupan tuotteita"],"1":["maap\u00e4hkin\u00e4\u00e4","p\u00e4hkin\u00e4\u00e4","soijaa"],"0":["G","[S]","VE"]},"ingredients":"Jalotofua (Reilu kauppa, luomu, sis. SOIJAA), sipulia, tomaattia, KAURARUOKA: (gluteeniton t\u00e4ysjyv\u00e4KAURA ), rypsi\u00f6ljy, stabilointi- ja emulgointiaineet (E 1442, E 412, E 472e), muunnettu t\u00e4rkkelys, stabilointiaine (natriumsitraatti)\nSOIJAKASTIKETTA, CASHEWP\u00c4HKIN\u00d6IT\u00c4, MAAP\u00c4HKIN\u00c4LEVITETT\u00c4, chilijauhetta, basilikaa, suolaa, mustapippuria.\nHiilijalanj\u00e4lki: 0, 37 kg CO 2e \/ annos"},{"meta":{"2":["Vastuullisesti kasvatettua kalaa"],"1":["kalaa","maitoa","soijaa"],"0":["G","L","[S]"]},"ingredients":"Kirjolohipy\u00f6rykk\u00e4 (KIRJOLOHI (Suomi), LOHI, SEITI (FAO 27 Koillis-Atlantti), peruna, rapsi\u00f6ljy, sipuli, laktoositon ranskanKERMA (past\u00f6roitu KERMA, hapate), perunarae, SOIJAproteiini, sakeuttamisaineet (E 461, E 407a), tomaatti, jodioitu suola, sitruunamehu, mustapippuri, valkopippuri.)\nPalsternakkajogurtti : Jogurtti (Past\u00f6roitu MAITO, hapate), palsternakka, sitruunamehu, sokeri, pansuola (sulfaatti), persilja., Hiilijalanj\u00e4lki: 0, 71 kg CO 2e \/ annos","price":{"name":"P\u00e4iv\u00e4n lounas","value":{"graduate_hyy":"5.55","student":"2.95","normal":"9.30","graduate":"5.55","contract":"7.30","student_hyy":"2.95"}},"name":"Kirjolohipy\u00f6ryk\u00e4t ja palsternakkajogurttia","sku":"6874","nutrition":"Energiaa 178kcal (745kJ), hiilihydraattia 6, 4g, rasvaa 12g, proteiinia 11g, suolaa 0, 74g."},{"name":"Teriyaki broilerinkoipi","price":{"value":{"graduate_hyy":"5.55","student":"2.95","graduate":"5.55","normal":"9.30","contract":"7.30","student_hyy":"2.95"},"name":"P\u00e4iv\u00e4n lounas"},"sku":"2846","nutrition":"Energiaa, 241kcal (1011kJ), hiilihydraattia 2g, rasvaa 18g, proteiinia 17g.","meta":{"0":["L"],"2":[],"1":["gluteenia","soijaa"]},"ingredients":"Broileria (Suomi), Santa Maria Teriyakikastike: Sokeri, vesi, SOIJAUUTE (vesi, SOIJAPAPU, suola, VEHN\u00c4JAUHO), suola, happamuudens\u00e4\u00e4t\u00f6aine (E 260), melassi, mallasuute (OHRA), muunnettu maissit\u00e4rkkelys, v\u00e4riaine (E 150a), maissit\u00e4rkkelys., Hiilijalanj\u00e4lki: 0, 78 kg CO 2e \/ annos"},{"price":{"value":{"graduate":"0.00","normal":"0.00","student_hyy":"0.00","contract":"0.00","student":"0.00","graduate_hyy":"0.00"},"name":"Lisuke"},"name":"H\u00f6yrytetty\u00e4 riisi\u00e4","sku":"Lis\u00e4ke","nutrition":"Energiaa 116kcal, hiilihydraattia 25g, rasvaa 0g, proteiinia 3g, suolaa 0g.","meta":{"0":["G","VE"],"2":[],"1":[]},"ingredients":"Riisi\u00e4, vett\u00e4."}]},{"data":[{"nutrition":"Energiaa 114kcal (479kJ), hiilihydraattia 11g, rasvaa 5g, proteiinia 2g, suola 0, 2 g","sku":"1020","name":"Pesto-kasvislasagnea","price":{"name":"Vegaani","value":{"student":"2.95","graduate_hyy":"5.55","graduate":"5.55","normal":"9.30","contract":"7.30","student_hyy":"2.95"}},"ingredients":"Kes\u00e4kurpitsa, Tomaatti, kuutio Kauraruoka (Kaurapohja (vesi, t\u00e4ysjyv\u00e4KAURA), rypsi\u00f6ljy, kalsiumkarbonaatti, suola, stabilointiaine (gellaanikumi), riboflaviini (B 2), fooli happo, jodi, D 2-vitamiini, B 12-vitamiini.), lasagnelevy (DURUMVEHN\u00c4, vesi.) (gluteeni), Sipuli, Vehn\u00e4, jauho (VEHN\u00c4, jauhonparanne (askorbiinihappo)) (gluteeni), Margariini (Kasvirasva (palmu\u00f6ljy (SG), kookosrasva), rypsi\u00f6ljy, vesi, suola, emulgointiaineet (E 471, E 472c, E 322 auringonkukkalesitiini), happamuudens\u00e4\u00e4t\u00f6aineet (E 330, E 500), aromi, A- ja D 2-vitamiini, v\u00e4ri (E 160a).), Pinaatti, Juustoraaste vegaaninen (vesi, kookos\u00f6ljy, muunnettu t\u00e4rkkelys (E 1422, E 1450, E 1420), ravintohiiva, maissit\u00e4rkkelys, sakeuttamisaine (E 415), suola, valkoviinietikka, kalsium (kalsiumlaktaatti), s\u00e4il\u00f6nt\u00e4aine (E 202), D 2-vitamiini. \u00d6ljy, rypsi (rypsi\u00f6ljy), Basilika, tahna (Auringonkukka\u00f6ljy, basilika, suola, arominvahvenne (natriumglutamaatti), sokeri, rypsi\u00f6ljy, stabilointiaine (kalsiumkloridi)), valkosipulimurska (valkosipuli, vesi, sokeri, valkoviinietikka, happamuudens\u00e4\u00e4t\u00f6aine (E 330), s\u00e4il\u00f6nt\u00e4aine (E 211)), Sitruuna, koko Auringonkukansiemen, Suola, pansuola, (Natriumkloridi, kaliumkloridi, magnesiumsulfaatti, lysiinihydrokloridi, paakkuuntumisenestoaine (piioksidi), kaliumjodidi.), Basilika, Valkopippuri, jauhettu (Valkopippuri), Mustapippuri, jauhettu (Mustapippuri.), Pippuri, musta rouhe, Hiilijalanj\u00e4lki: 0, 43 kg CO 2e \/ annos","meta":{"0":["[S]","VE"],"2":["Ilmastovalinta"],"1":["gluteenia"]}},{"meta":{"2":["Ilmastovalinta"],"1":["soijaa"],"0":["G","M","[S]","VE"]},"ingredients":"KIKHERNE, porkkana, riisijauho, sipuli, korianteri, kumina, fenkoli, sitruuna, suola, nostatusainetta E 500, rypsi\u00f6ljy.\nPinaattidippikastike :, SOIJAJOGURTTI, pinaatti, sitruunamehu, suola, mustapippuri.\nHiilijalanj\u00e4lki: 0, 41 kg CO 2e \/ annos","name":"Porkkana-falafelpihvit, pinaattidippikastiketta","price":{"value":{"contract":"7.30","student_hyy":"2.95","graduate":"5.55","normal":"9.30","graduate_hyy":"5.55","student":"2.95"},"name":"Vegaani"},"nutrition":"Energiaa 131kcal, hiilihydraattia 19g, rasvaa 3g, proteiinia 7g, suolaa 0, 9g.","sku":"6336"},{"ingredients":"SEI, kasvirasvasekoite (MAITO, rypsi\u00f6ljy, osittain kovetettu palmu\u00f6ljy, muunnettu t\u00e4rkkelys E 1450, emulgointi- ja stabilointiaineet E 1442, E 412, E 472e, maltodekstriini, sokeri, happamuudens\u00e4\u00e4t\u00f6aine E 331, aromi, v\u00e4ri E 160a), SINAPPI, JUUSTO, maissit\u00e4rkkelyst\u00e4, ruohosipuli, paprikajauhe, suolaa, valkopippuri., Hiilijalanj\u00e4lki: 0, 58 kg CO 2e \/ annos","meta":{"0":["G","L","[S]"],"2":[],"1":["kalaa","maitoa","sinappia"]},"sku":"2054","nutrition":"Energiaa 116kcal (486kJ), hiilihydraattia 2g, proteiinia 15g, rasvaa 5g, suolaa 0, 77g.","price":{"name":"P\u00e4iv\u00e4n lounas","value":{"graduate_hyy":"5.55","student":"2.95","contract":"7.30","student_hyy":"2.95","graduate":"5.55","normal":"9.30"}},"name":"Juustoista uunikalaa"},{"name":"Gluteenitonta kauraa","price":{"value":{"student_hyy":"6.60","contract":"6.60","graduate":"6.60","normal":"6.60","graduate_hyy":"6.60","student":"6.60"},"name":"Kotilounas"},"nutrition":"Energiaa 125 kcal (522 J), hiilihydraattia 19 g, rasvaa 2g, proteiinia 5g, suolaa 0g.","sku":"31","meta":{"1":[],"2":["Ilmastovalinta"],"0":["G","[S]","VE"]},"ingredients":"Ainesosat: Suomalainen gluteeniton kaurajyv\u00e4 (Gluteeniton t\u00e4ysjyv\u00e4KAURA)."}],"date":"Pe 01.08.","message":null},{"data":[],"date":"La 02.08.","message":null},{"message":null,"date":"Su 03.08.","data":[]},{"date":"Ma 04.08.","message":null,"data":[]},{"data":[],"date":"Ti 05.08.","message":null},{"message":null,"date":"Ke 06.08.","data":[]},{"data":[],"date":"To 07.08.","message":null},{"date":"Pe 08.08.","message":null,"data":[]},{"date":"La 09.08.","message":null,"data":[]},{"message":null,"date":"Su 10.08.","data":[]}]}},{"id":1357,"title":"Infokeskus","slug":"infokeskus","permalink":"https:\/\/unicafe.fi\/restaurants\/infokeskus\/","location":[{"id":47,"name":"Viikki"}],"address":"Viikinkaari 11","visitingHours":"2","blocksHtml":"","menuData":{"areacode":5,"name":"Infokeskus yl\u00e4kerta","id":17,"phone":"Ravintola +358 46 921 2433 Ravintolap\u00e4\u00e4llikk\u00f6 +358 44 575 7573","email":"infokeskus@unicafe.fi","feedback_address":"https:\/\/smiley.link\/WTDZPGLW","description":"Esteett\u00f6myys<br \/>- sis\u00e4\u00e4nk\u00e4ynti : esteet\u00f6n sis\u00e4\u00e4nk\u00e4ynti pihalta p\u00e4\u00e4oven kautta.<br \/>- inva wc: kirjaston k\u00e4yt\u00e4v\u00e4ll\u00e4, lis\u00e4tietoa vahtimestarilta","visitingHours":{"business":{"name":null,"items":[{"closedException":false,"label":"Ma\u2013Pe","hours":"08:00\u201314:30"},{"closedException":false,"label":"La\u2013Su","hours":"Suljettu"},{"exception":true,"label":"19.6.","hours":"08:00\u201314:00"},{"exception":true,"label":"20.6.\u201310.8.","hours":"Suljettu"}]},"breakfast":false,"bistro":false,"lounas":{"name":null,"items":[{"closedException":false,"label":"Ma\u2013Pe","hours":"10:30\u201314:30"},{"closedException":false,"label":"La\u2013Su","hours":"Suljettu"},{"exception":true,"label":"19.6.","hours":"10:30\u201314:00"}]}},"menus":[{"data":[],"message":null,"date":"Ma 28.07."},{"message":null,"date":"Ti 29.07.","data":[]},{"date":"Ke 30.07.","message":null,"data":[]},{"data":[],"message":null,"date":"To 31.07."},{"data":[],"date":"Pe 01.08.","message":null},{"data":[],"date":"La 02.08.","message":null},{"message":null,"date":"Su 03.08.","data":[]},{"message":null,"date":"Ma 04.08.","data":[]},{"date":"Ti 05.08.","message":null,"data":[]},{"data":[],"date":"Ke 06.08.","message":null},{"message":null,"date":"To 07.08.","data":[]},{"message":null,"date":"Pe 08.08.","data":[]},{"data":[],"date":"La 09.08.","message":null},{"data":[],"date":"Su 10.08.","message":null}]}},{"id":1356,"title":"Exactum","slug":"exactum","permalink":"https:\/\/unicafe.fi\/restaurants\/exactum\/","location":[{"id":45,"name":"Kumpula"}],"address":"Gustaf H\u00e4llstr\u00f6min katu 2b","visitingHours":"2","blocksHtml":"","menuData":{"name":"Exactum","areacode":2,"id":11,"phone":"050 557 6046","email":"exactum@unicafe.fi","feedback_address":"https:\/\/smiley.link\/WCSGKXZG","description":"Esteett\u00f6myys<br \/>- sis\u00e4\u00e4nk\u00e4ynti: p\u00e4\u00e4ovesta oikealla hissi tai luiska, ravintolakerrokseen hissi (1. krs -> K kerros).<br \/>- inva- wc ravintolasalissa.","visitingHours":{"business":{"name":null,"items":[{"closedException":true,"label":"Ma\u2013Pe","hours":"09:00\u201314:00"},{"closedException":true,"label":"La\u2013Su","hours":"Suljettu"},{"exception":true,"label":"12.5.\u201331.8.","hours":"Suljettu"}]},"breakfast":false,"bistro":false,"lounas":{"name":null,"items":[{"closedException":false,"label":"Ma\u2013Pe","hours":"11:00\u201314:00"},{"closedException":false,"label":"La\u2013Su","hours":"Suljettu"},{"exceptionUndefinedTime":false,"label":"Ma-Su","hours":"Suljettu"}]}},"menus":[{"message":null,"date":"Ma 28.07.","data":[]},{"data":[],"date":"Ti 29.07.","message":null},{"data":[],"message":null,"date":"Ke 30.07."},{"data":[],"date":"To 31.07.","message":null},{"data":[],"message":null,"date":"Pe 01.08."},{"date":"La 02.08.","message":null,"data":[]},{"message":null,"date":"Su 03.08.","data":[]},{"data":[],"date":"Ma 04.08.","message":null},{"data":[],"message":null,"date":"Ti 05.08."},{"data":[],"date":"Ke 06.08.","message":null},{"message":null,"date":"To 07.08.","data":[]},{"data":[],"message":null,"date":"Pe 08.08."},{"data":[],"message":null,"date":"La 09.08."},{"date":"Su 10.08.","message":null,"data":[]}]}},{"id":1354,"title":"Chemicum","slug":"chemicum","permalink":"https:\/\/unicafe.fi\/restaurants\/chemicum\/","location":[{"id":45,"name":"Kumpula"}],"address":"A.I. Virtasen aukio 1","visitingHours":"3","blocksHtml":"","menuData":{"id":10,"name":"Chemicum","areacode":2,"phone":"Ravintolap\u00e4\u00e4llikk\u00f6 050 4363362     Keitti\u00f6mestari 050 382 1696","email":"chemicum@unicafe.fi","feedback_address":"https:\/\/smiley.link\/DLMLMHFF","description":"Esteett\u00f6myys<br \/>- sis\u00e4\u00e4nk\u00e4ynti : p\u00e4\u00e4ovesta yhdysk\u00e4yt\u00e4v\u00e4n kautta, matalat kynnykset (raskaat ovet - vahtimestarit auttavat tarvittaessa).<br \/>- inva-wc p\u00e4\u00e4aulassa ovesta vasemmalle.","visitingHours":{"business":{"name":null,"items":[{"closedException":false,"label":"Ma\u2013Pe","hours":"08:00\u201315:00"},{"closedException":false,"label":"La\u2013Su","hours":"Suljettu"},{"exception":true,"label":"30.6.\u20131.8.","hours":"08:00\u201314:00"}]},"breakfast":false,"bistro":false,"lounas":{"name":null,"items":[{"closedException":false,"label":"Ma\u2013Pe","hours":"10:30\u201315:00"},{"closedException":false,"label":"La\u2013Su","hours":"Suljettu"},{"exception":true,"label":"30.6.\u20131.8.","hours":"10:30\u201314:00"}]}},"menus":[{"date":"Ma 28.07.","message":null,"data":[{"ingredients":"HERNEPROTEIINIA, rypsi\u00f6ljy\u00e4, sipulia, HERNEKUITUA, psylliumia, korianteria, lipstikkaa, VALKOSIPULIA, maustepippuria, paprikaa, musta- ja valkopippuria, sakeuttamisaineita E 407a ja E 461, jodioitua suolaa, dekstroosia, aromit, karamellisoitua sokeria.\nPippurikastike: Kaurapohja (vesi, gluteeniton KAURA, rapsi\u00f6ljy, muunnettu t\u00e4rkkelys, emulgointiaine (E 472e), happamuudens\u00e4\u00e4t\u00f6aineet (trinatriumsitraatti, sitruunahappo), stabilointiaine (guarkumi). Kasvirasva (palmu\u00f6ljy (SG), kookosrasva), rypsi\u00f6ljy, vesi, suola, emulgointiaineet (E 471, E 472c, E 322 auringonkukkalesitiini), happamuudens\u00e4\u00e4t\u00f6aineet (E 330, E 500), aromi, A- ja D 2-vitamiini, v\u00e4ri (E 160a). Vesi, SINAPINSIEMEN, sokeri, suola, happamuudens\u00e4\u00e4t\u00f6aine (E 260), mausteet (valkosipuli, sipuli, valkopippuri), v\u00e4rit (E 150d, E 160a, E 101), s\u00e4il\u00f6nt\u00e4aine (E 211).,, kasvisliemijauhetta, suola, kuivattu glukoosisiirappi, aromit, sipulijauhe, muunnettu t\u00e4rkkelys, maltodekstriini, rapsi\u00f6ljy, kasvistiiviste (porkkana, purjo, herkkusieni, parsakaali, paprika), mausteet (kurkuma, valkopippuri, korianterin siemenet), sokeri, etikkauute. maissit\u00e4rkkelyst\u00e4, mustapippuria Vesi, SOIJAPROTEIINIHYDROLYSAATTI, suola., V\u00e4ri (sokerikul\u00f6\u00f6ri E 150c) , viherpippuri, rosepippuri, mustapippuri,\nHiilijalanj\u00e4lki: 0, 49 kg CO 2e \/ annos","meta":{"0":["G","[S]","VE"],"1":["sinapinsiemeni\u00e4","sinappia","soijaa"],"2":["Ilmastovalinta"]},"sku":"6262","nutrition":"Energiaa 170kcal, hiilihydraattia 4g, rasvaa 12g, proteiinia 9g, suolaa 1, 1g.","name":"Kasvisjauhispy\u00f6ryk\u00e4t, pippurikastiketta","price":{"value":{"graduate_hyy":"5.55","student":"2.95","graduate":"5.55","normal":"9.30","student_hyy":"2.95","contract":"7.30"},"name":"Vegaani"}},{"sku":"9018","nutrition":"Energia 56kcal \/ 236kJ, Rasva 0, 56g, Hiilihydraatti 4, 82g, Proteiini 5, 20g, Suola 0, 68g","price":{"value":{"student_hyy":"2.95","contract":"7.30","normal":"9.30","graduate":"5.55","graduate_hyy":"5.55","student":"2.95"},"name":"Vegaani"},"name":"Kimchipata","ingredients":"Fermentoitu h\u00e4rk\u00e4papu (vesi, merisuola ja E 150d), vesi, kimchi (kiinankaali, porkkana, valkoinen retiisi, sokeri, suola, gochugaru-chili, valkosipuli, sipuli, kuivattu ruohosipuli, paprikauute, jauhettu inkiv\u00e4\u00e4ri), valkokaali,, valkoviinietikka (valkoviinietikka, hapettumisenestoaine (kaliumvetySULFIITTI)), soijakastike (sokerisiirappi, hydrolysoitu SOIJA, v\u00e4ri (E 150c), sakeuttamisaine (E 407, E 412, E 466), happamuudens\u00e4\u00e4t\u00f6aine ( E 330), aromi (ammoniumkloridi), s\u00e4il\u00f6nt\u00e4aine (E 211)), tomaattipyre, purjosipuli, korianteri, savuchilikastike (habanero, porkkana, sokeriruokoetikka, chipotle, lime, happamuudens\u00e4\u00e4t\u00f6aineet (etikkahappo, sitruunahappo), valkosipuli, passiohedelm\u00e4mehu, sakeuttamisaine (ksantaanikumi).), maissit\u00e4rkkelys, inkiv\u00e4\u00e4ritahna (inkiv\u00e4\u00e4ri, etikka, happamuudens\u00e4\u00e4t\u00f6aineet (sitruunahappo, askorbiinihappo).), kasvisliemijauhe (glukoosisiirappi, aromi, modifioitu t\u00e4rkkelys, maltodekstriini, rapsi\u00f6ljy, kasvistiivistett\u00e4 (porkkana, purjo, herkkusieni, parsakaali, paprika), mausteet, etikkauute, rosmariiniuute.), valkosipulimurska (valkosipuli, valkoviinietikka, happamuudens\u00e4\u00e4t\u00f6aine (E 330), s\u00e4il\u00f6nt\u00e4aine (E 211))., Hiilijalanj\u00e4lki: 0, 42 kg CO 2e \/ annos","meta":{"0":["G","[S]","VE"],"2":["Ilmastovalinta"],"1":["soijaa","sulfiitteja"]}},{"meta":{"0":["G","L","[S]"],"2":["Toiveklassikko"],"1":["maitoa","sinapinsiemeni\u00e4","sinappia"]},"ingredients":"Vesi, broilerinliha, koneellisesti eroteltu siipikarjanliha (Suomi), siipikarjanrasva, perunat\u00e4rkkelys, jodioitu suola, perunakuitu, happamuudens\u00e4\u00e4t\u00f6aine kaliumkloridi, stabilointiaine E 450, dekstroosi, aromit (mm. paprika), hapettumisenestoaine E 301, s\u00e4il\u00f6nt\u00e4aine natriumnitriitti, ruokakerma (MAITO, hapate),,, JUUSTO (past\u00f6roitu MAITO, suola, hapate) ja paakkuuntumisenestoaine (E 460)., maissit\u00e4rkkelys, rapsi\u00f6ljy, sipuli, suola, mustapippuri, Vesi, sokeri, SINAPINSIEMEN, etikka, jodioitu suola, rypsi\u00f6ljy, v\u00e4ri (sokerikul\u00f6\u00f6ri), s\u00e4il\u00f6nt\u00e4aine (natriumbentsoaatti) ja valkopippuri., Hiilijalanj\u00e4lki: 0, 98 kg CO 2e \/ annos","name":"Juustoista uunimakkaraa","price":{"value":{"graduate_hyy":"5.55","student":"2.95","student_hyy":"2.95","contract":"7.30","graduate":"5.55","normal":"9.30"},"name":"P\u00e4iv\u00e4n lounas"},"nutrition":"Energiaa 170 kcal (713 kJ), hiilihydraattia 5, 4 g, rasvaa 12g, proteiinia 10g, suola 1, 2 g","sku":"790"},{"nutrition":"Energiaa 125 kcal (522 J), hiilihydraattia 19 g, rasvaa 2g, proteiinia 5g, suolaa 0g.","sku":"31","price":{"name":"Lisuke","value":{"normal":"0.00","graduate":"0.00","student_hyy":"0.00","contract":"0.00","student":"0.00","graduate_hyy":"0.00"}},"name":"Gluteenitonta kauraa","ingredients":"Ainesosat: Suomalainen gluteeniton kaurajyv\u00e4 (Gluteeniton t\u00e4ysjyv\u00e4KAURA).","meta":{"0":["G","VE"],"1":[],"2":["Ilmastovalinta"]}},{"meta":{"0":["G","L"],"1":["maitoa"],"2":[]},"ingredients":"Maitorahka (Past\u00f6roitu rasvaton maito, hapate, s\u00e4il\u00f6nt\u00e4aine (E 202), vispikerma (kerma ja stabilointiaine (karrageeni), mustikka, sokeri,","name":"Mustikkarahkaa","price":{"name":"Makeasti","value":{"student_hyy":"1.50","contract":"1.50","normal":"1.50","graduate":"1.50","graduate_hyy":"1.50","student":"1.50"}},"sku":"1189","nutrition":"Energiaa 142kcal (594kJ), hiilihydraattia 14g, rasvaa 6g, proteiinia 7g."}]},{"message":null,"date":"Ti 29.07.","data":[{"ingredients":"KASVISJALAPENONUGETIT\nKasvis-jalapenonuggetit (Vesi, SOIJAproteiini, punainen paprika, rapsi\u00f6ljy, gluteeniton korppujauho (riisijauho, kikhernejauho, maissit\u00e4rkkelys, suola, dekstroosi), peruna- ja maissit\u00e4rkkelys, kookos\u00f6ljy, jalapeno, hernet\u00e4rkkelys, mausteet (valkosipuli, muskottip\u00e4hkin\u00e4, valkopippuri, mustapippuri, liperinjuuri), sakeuttamisaineet (E 461, E 407a, E 415), aromit., Chimichurridippi:\nkuorittu soijapapu*, polydekstroosi (ravintokuitu), ryp\u00e4lesokeri, muunnettu t\u00e4rkkelys, sokeri, vitamiinit (D 2, riboflaviini (B 2), B 12, foolihappo), kalsium, stabilointiaine (pektiinit), suola, hapate, rapsi\u00f6ljy, vesi, sokeri, sitruunat\u00e4ysmehutiiviste, muunnettu perunat\u00e4rkkelys, etikka, suola, SINAPPIaromi, s\u00e4il\u00f6nt\u00e4aine (E 202), stabilointiaine (E 415), v\u00e4ri (E 160a).minttu, sipuli, jalapeno, valkosipuli, paprika, chili, tomaatti, mustapippuri\nHiilijalanj\u00e4lki: 0, 45 kg CO 2e \/ annos","meta":{"0":["G","[S]","VE"],"2":["Ilmastovalinta"],"1":["sinappia","soijaa"]},"sku":"9043","nutrition":"Energia 174kcal \/ 728kJ, Rasva 10, 38g, Hiilihydraatti 13, 80g, Proteiini 6, 78g, Suola 0, 84g","price":{"name":"Vegaani","value":{"graduate_hyy":"5.55","student":"2.95","graduate":"5.55","normal":"9.30","student_hyy":"2.95","contract":"7.30"}},"name":"Kasvisjalapenonugetteja ja chili-minttudippi"},{"price":{"name":"Vegaani","value":{"student":"2.95","graduate_hyy":"5.55","student_hyy":"2.95","contract":"7.30","normal":"9.30","graduate":"5.55"}},"name":"Quornia pestokastikkeessa","sku":"7582","nutrition":"Energia 100kcal \/ 417kJ, Rasva 6, 13g, Hiilihydraatti 5, 61g, Proteiini 4, 44g, Suola 0, 79g","meta":{"1":["gluteenia"],"2":["Ilmastovalinta"],"0":["[S]","VE"]},"ingredients":"Vegaaninen Quorn (Mykoproteiini, luonnollinen aromi, perunaproteiini, hernekuitu, VEHN\u00c4GLUTEENI, kiinteytysaineet: kalsiumkloridi,\nkalsiumasetaatti; Paahdettu OHRAmallasuute, stabilointiaine: Karrageeni), Kaurapohja (vesi, gluteeniton t\u00e4ysjyv\u00e4KAURA), rypsi\u00f6ljy, muunnetut t\u00e4rkkelykset, stabilointiaine (guarkumi), happamuudens\u00e4\u00e4t\u00f6aine (natriumsitraatti), emulgointiaine (E 472e), voipapu vesi, sipuli, kes\u00e4kurpitsa, aurinkokuivattu tomaatti, P\u00e4hkin\u00e4t\u00f6n pesto:auringonkukka\u00f6ljy, tiivistetty basilika, suola, maissit\u00e4rkkelys, valkosipuli, viinietikka, fruktoosi, happamuudens\u00e4\u00e4t\u00f6aineet (E 270, E 330)., viinietikka, valkosipuli, fruktoosi, happamuudens\u00e4\u00e4t\u00f6aineet (maitohappo, sitruunahappo)., tomaatti, maissit\u00e4rkkelys, Sitruunamehutiiviste, sokeri, s\u00e4il\u00f6nt\u00e4aine (E 202), kasvisliemijauhe (Suola, glukoosisiirappi, aromi, sipuli, modifioitu t\u00e4rkkelys, maltodekstriini, rapsi\u00f6ljy, kasvistiivistett\u00e4 (porkkana, purjo, herkkusieni, parsakaali, paprika), mausteet, sokeri, etikkauute, rosmariiniuute), sokeri, valkosipuli, vesi, sokeri, valkoviinietikka, happamuudens\u00e4\u00e4t\u00f6aine (E 330), s\u00e4il\u00f6nt\u00e4aine (E 211), Natriumkloridi, kaliumkloridi, magnesiumsulfaatti, lysiinihydrokloridi, paakkuuntumisenestoaine (piioksidi), kaliumjodidi., Kurkuma, Mustapippuri\nHiilijalanj\u00e4lki: 0, 34 kg CO 2e \/ annos"},{"ingredients":"KIRJOLOHI, kirjolohi,, lasagnelevy (durumVEHN\u00c4jauho), kananmuna, tomaatti, sipuli, purjosipuli, Juusto*, vesi, voi*, sulatesuolat (E 452, E 339, E 331), suola.Past\u00f6roitu KERMA, rasvaton MAITOjauhe, sakeuttamisaineet (E 440, E 412), suola, s\u00e4il\u00f6nt\u00e4aine (E 202 kaliumsorbaatti), hapate.,, kasvirasvasekoite (Rasvaton MAITO, rapsi\u00f6ljy, muunnettu maissi- ja tapiokat\u00e4rkkelys, emulgointiaine (E 472e), aromi, v\u00e4ri (betakaroteeni).), JUUSTORAASTE, rypsi\u00f6ljy,, kalaliemijauhe (Glukoosisiirappi, suola, KALA, palmurasva, sokeri, sipuli, happamuudens\u00e4\u00e4t\u00f6aineet (sitruunahappo, maitohappo, kalsiumlaktaatti), mausteet (valkopippuri, kurkuma), rosmariinitiiviste.), tilli, pansuola (sulfaatti), mustapippuri.\nHiilijalanj\u00e4lki: 0, 86 kg CO 2e \/ annos","meta":{"1":["gluteenia","kalaa","kananmunaa","maitoa"],"2":["Vastuullisesti kasvatettua kalaa"],"0":["L","[S]"]},"sku":"880","nutrition":"Energiaa 143kcal (598kJ), hiilihydraattia 12g, rasvaa 7g, proteiinia 7g, suolaa 0, 49g.","price":{"value":{"graduate":"5.55","normal":"9.30","student_hyy":"2.95","contract":"7.30","student":"2.95","graduate_hyy":"5.55"},"name":"P\u00e4iv\u00e4n lounas"},"name":"Lohilasagnea"},{"nutrition":"Energiaa 65kcal (271kJ), hiilihydraattia 13g, rasvaa 0g, proteiinia 2g.","sku":"Lis\u00e4ke","name":"Keitetty\u00e4 perunaa","price":{"value":{"graduate":"0.00","normal":"0.00","student_hyy":"0.00","contract":"0.00","student":"0.00","graduate_hyy":"0.00"},"name":"Lisuke"},"ingredients":"Perunaa","meta":{"0":["[S]","VE"],"2":["Ilmastovalinta"],"1":[]}},{"ingredients":"Ainesosat: Suomalainen gluteeniton kaurajyv\u00e4 (Gluteeniton t\u00e4ysjyv\u00e4KAURA), rapsi\u00f6ljy","meta":{"0":["G","[S]","VE"],"1":[],"2":["Ilmastovalinta"]},"sku":"31","nutrition":"Energiaa 125 kcal (522 J), hiilihydraattia 19 g, rasvaa 2g, proteiinia 5g, suolaa 0g.","name":"Gluteiinitonta kauraa","price":{"value":{"student":"0.00","graduate_hyy":"0.00","student_hyy":"0.00","contract":"0.00","normal":"0.00","graduate":"0.00"},"name":"Lisuke"}},{"meta":{"2":[],"1":[],"0":["G","VE"]},"ingredients":"P\u00e4\u00e4ryn\u00e4\u00e4, kookosmaitoa, fariinisokeri, sokeri, kauravispi","name":"P\u00e4\u00e4ryn\u00e4\u00e4 kinuskikastikkeessa","price":{"name":"Makeasti","value":{"student":"1.50","graduate_hyy":"1.50","graduate":"1.50","normal":"1.50","student_hyy":"1.50","contract":"1.50"}},"sku":"3633","nutrition":"Energiaa 80kcal (334kJ), hiilihydraattia 12g, rasvaa 3g, proteiinia 0."}]},{"message":null,"date":"Ke 30.07.","data":[{"sku":"6335","nutrition":"Energiaa 174kcal, hiilihydraattia 8g, rasvaa 13g, proteiinia 6g, suolaa 0, 7g.","price":{"name":"Vegaani","value":{"student_hyy":"2.95","contract":"7.30","graduate":"5.55","normal":"9.30","graduate_hyy":"5.55","student":"2.95"}},"name":"Punajuuripy\u00f6ryk\u00e4t, rakuuna-dippi\u00e4","ingredients":"Punajuuri , esipaistettu sipuli (rapsi\u00f6ljy, auringonkukka\u00f6ljy), perunarae, rapsi\u00f6ljy, herneproteiini, kurpitsansiemen, vesi, kookos\u00f6ljy, paahdettu pellavansiemenrouhe, muunnettu perunat\u00e4rkkelys, maissit\u00e4rkkelys, sokeri, sakeuttamisaineet (E 461, E 407a, E 415), jodioitu suola, sitruunamehutiiviste, mustapippuri\nSoijajogurtti kuorittu soijapapu polydekstroosi (ravintokuitu), ryp\u00e4lesokeri, muunnettu t\u00e4rkkelys, sokeri, vitamiinit (D 2, riboflaviini (B 2), B 12, foolihappo), kalsium, stabilointiaine (pektiinit), suola, hapate., rapsi\u00f6ljy, vesi, sokeri, sitruunat\u00e4ysmehutiiviste, muunnettu perunat\u00e4rkkelys, etikka, suola, SINAPPIaromi, s\u00e4il\u00f6nt\u00e4aine (E 202), stabilointiaine (E 415), v\u00e4ri (E 160a), pansuola, sokeri. rakuuna, limemehu, Hiilijalanj\u00e4lki: 0, 37 kg CO 2e \/ annos","meta":{"1":["sinappia","soijaa"],"2":["Ilmastovalinta"],"0":["G","VE"]}},{"ingredients":"Rapsi\u00f6ljy, garam masala (Korianteri, mustapippuri, tillinsiemen, kaneli, neilikka, kumina, kardemumma.), inkiv\u00e4\u00e4ritahna (inkiv\u00e4\u00e4ri, etikka, SOIJApapu\u00f6ljy, sokeri, suola, sitruunahappo, askorbiinihappo), chili, valkosipulimurska (VALKOSIPULI, sokeri, valkoviinietikka, E 330, E 211), sipuli, tomaatti, pansuola, sokeri, Kaurapohja (vesi, gluteeniton KAURA, rypsi\u00f6ljy, muunnettu t\u00e4rkkelys, emulgointiaine (E 472e), happamuudens\u00e4\u00e4t\u00f6aineet (trinatriumsitraatti, sitruunahappo), stabilointiaineet (ksantaanikumi, guarkumi) .KIKHERNE\nHiilijalanj\u00e4lki: 0, 51 kg CO 2e \/ annos","meta":{"2":["Ilmastovalinta"],"1":[],"0":["G","[S]","VE"]},"sku":"6330","nutrition":"Energiaa 119kcal, hiilihydraattia 10g, rasvaa 6g, proteiinia 5g, suolaa 0, 2g.","price":{"name":"Vegaani","value":{"graduate":"5.55","normal":"9.30","student_hyy":"2.95","contract":"7.30","graduate_hyy":"5.55","student":"2.95"}},"name":"Kikhernekastiketta Tikka masala"},{"ingredients":"Broilerinliha (89 %), vesi, rypsi\u00f6ljy, jodioitu suola, maltodekstriini, etikka, mausteet (paprika, korianteri, juustokumina, inkiv\u00e4\u00e4ri), dekstroosi, sokeri, aromit, sakeuttamisaineet (guarkumi, ksantaanikumi), happamuudens\u00e4\u00e4t\u00f6aine sitruunahappo. Broilerinlihan alkuper\u00e4 Suomi, Dippi:Majoneesi, kermaviili, tomaattisose, savustettu jalapenochili, Vesi, siirappi, tomaattisose, sokeri, punaviinietikka, ananast\u00e4ysmehutiiviste, muunnettu perunat\u00e4rkkelys, luumut\u00e4ysmehutiiviste, jod ioitu suola, mausteet (valkosipuli, SINAPPIjauhe, mustapippuri, cayenne), sakeuttamisaine (E 415), s\u00e4il\u00f6nt\u00e4aine (E 202), v\u00e4ri (E 150c), savuaromi, sokeri, sipuli, viinietikka, suola, rapsi\u00f6ljy, paprika, oregano, laakerinlehti, timjami, valkosipuli., Hiilijalanj\u00e4lki: 1, 26 kg CO 2e \/ annos","meta":{"0":["G","L"],"2":[],"1":["kananmunaa","maitoa"]},"sku":"1297","nutrition":"Energiaa 167 kcal (697kj), proteiini 11, 6 g, rasva 12 g, hiilihydraatti 4 g, suola 1g","price":{"value":{"contract":"7.30","student_hyy":"2.95","graduate":"5.55","normal":"9.30","graduate_hyy":"5.55","student":"2.95"},"name":"P\u00e4iv\u00e4n lounas"},"name":"Marinoitua kanankoipea"},{"meta":{"2":["Ilmastovalinta"],"1":[],"0":["G","[S]","VE"]},"ingredients":"Perunaa","price":{"name":"Lisuke","value":{"student":"0.00","graduate_hyy":"0.00","normal":"0.00","graduate":"0.00","student_hyy":"0.00","contract":"0.00"}},"name":"Keitetty\u00e4 perunaa","nutrition":"Energiaa 65kcal (271kJ), hiilihydraattia 13g, rasvaa 0g, proteiinia 2g.","sku":"Lis\u00e4ke"},{"ingredients":"Vispikermaa, MAITOA, kaakaojauhetta (saattaa sis\u00e4lt\u00e4\u00e4 pieni\u00e4 m\u00e4\u00e4ri\u00e4 MAITOA, HASSELP\u00c4HKIN\u00d6IT\u00c4, MANTELEITA, ja SOIJAA), sokeria, maito suklaata (saattaa sis\u00e4lt\u00e4\u00e4 pieni\u00e4 m\u00e4\u00e4ri\u00e4 MAITOA, HASSELP\u00c4HKIN\u00d6IT\u00c4, MANTELEITA, ja SOIJAA), kaakaomassaa, dekstroosia, emulgointiainetta (E 471, E 472a), SOIJALESITIINI\u00c4, glukoosisiirappia, kasvirasvaa, liivate, maltodekstriini, muunneltua maissit\u00e4rkkelyst\u00e4, MAITOPROTEIINIA, stabilointiaineita (E 340, E 466), kaakaojauhe, sokeri, glukoosisiirappi, kaakaomassa, kaakaovoi, aromit (mm. luontainen piparminttu), emulgointiaine (SOIJAlesitiini)","meta":{"2":[],"1":["maitoa","p\u00e4hkin\u00e4\u00e4","soijaa"],"0":["G"]},"sku":"1209","nutrition":"Energiaa 207kcal (867kJ), hiilihydraattia 25g, rasvaa 9g, proteiinia 6g.","price":{"value":{"student":"1.50","graduate_hyy":"1.50","student_hyy":"1.50","contract":"1.50","normal":"1.50","graduate":"1.50"},"name":"Makeasti"},"name":"Suklaamoussea"}]},{"message":null,"date":"To 31.07.","data":[{"ingredients":"Tofu (SOIJA), Rypsi\u00f6ljy, vesi, kasvirasvat (SG-palmu ja kookos vaihtelevina osuuksina), suola, emulgointiaine (E 471 kasvirasvasta), aromit, A- ja D 2-vitamiini, v\u00e4ri (beta-karoteeni).), tomaatti, sipuli, chili, kardemumma, korianteri, neilikka, suola, paprika, kauraruokakerma (gluteeniton kaura, rypsi\u00f6ljy, stabilointi- ja emulgointiaineet e 1442, e 412, e 472e, muunnettu t\u00e4rkkelys, stabilointiaine natriumsitraatti),, fariinisokeri, sitruuna), juustokumina, korianteri tuore\nHiilijalanj\u00e4lki: 0, 44 kg CO 2e \/ annos","meta":{"0":["G","[S]","VE"],"2":["Ilmastovalinta","Sis\u00e4lt\u00e4\u00e4 Reilun kaupan tuotteita"],"1":["soijaa"]},"sku":"6935","nutrition":"Energiaa 93kcal (390kJ), hiilihydraattia 3, 7g, rasvaa 6, 5g, proteiinia 4, 5g, suolaa 0, 28g","price":{"name":"Vegaani","value":{"graduate":"5.55","normal":"9.30","contract":"7.30","student_hyy":"2.95","student":"2.95","graduate_hyy":"5.55"}},"name":"Vegaaninen buttertofu"},{"ingredients":"KAURAruoka gluteeniton (KAURApohja (vesi, gluteeniton t\u00e4ysjyv\u00e4KAURA), rypsi\u00f6ljy, muunnetut t\u00e4rkkelykset, stabilointiaine (guarkumi), happamuudens\u00e4\u00e4t\u00f6aine (natriumsitraatti), emulgointiaine (E 472e).), makaroni (VEHN\u00c4JAUHO, DURUMVEHN\u00c4JAUHO, vesi.), jauhismuru (herneproteiini (Vesi, herneproteiini, rypsi\u00f6ljy, suola, aromit ja mausteet (musta ja valkopippuri), punajuuri jauhe, karrageeni.)), Sipuli, Suola (Natriumkloridi, kaliumkloridi, magnesiumsulfaatti, lysiinihydrokloridi, paakkuuntumisenestoaine (piioksidi), kaliumjodidi.), Paprikajauhe, Mustapippuri.., Hiilijalanj\u00e4lki: 0, 38 kg CO 2e \/ annos","meta":{"2":["Ilmastovalinta"],"1":["gluteenia"],"0":["[S]","VE"]},"nutrition":"Energia 122kcal \/ 509 kJ, Rasva 5, 53g, Hiilihydraatti 13, 63g, Proteiini 3, 9g, Suola 0, 47g","sku":"7568","price":{"value":{"graduate_hyy":"5.55","student":"2.95","student_hyy":"2.95","contract":"7.30","graduate":"5.55","normal":"9.30"},"name":"Vegaani"},"name":"Makaronilaatikko"},{"meta":{"1":["gluteenia","kalaa","maitoa"],"2":["Vastuullisesti kalastettua"],"0":["L","[S]"]},"ingredients":"Atlantin TURSKA, VEHN\u00c4JAUHO, vesi, rapsi\u00f6ljy, VEHN\u00c4T\u00c4RKKELYS, mausteseos (sis. KALAA, VEHN\u00c4GLUTEENIA), sakeuttamisaine (E 461), suola, hiiva, kasvikuitu, sakeuttamisaine (E 464), kurkuma, paprika.\nKermaviilikastike : KERMAviili (past\u00f6roitu KERMA, hapate) sokeri, pansuola (sulfaatti), rapsi\u00f6ljy, sitruuna, tilli, Porkkana 26 %, kurkku 22 %, sokeri, etikka, kukkakaali 11%, pikkusipuli 8 %, vesi, suola, s\u00e4il\u00f6nt\u00e4aine ( E 202), luontainen aromi., Hiilijalanj\u00e4lki: 1, 04 kg CO 2e \/ annos","name":"Kalapuikot, tartar-kermaviilikastiketta","price":{"value":{"student":"2.95","graduate_hyy":"5.55","graduate":"5.55","normal":"9.30","contract":"7.30","student_hyy":"2.95"},"name":"P\u00e4iv\u00e4n lounas"},"sku":"855","nutrition":"Energiaa 179kcal (748kJ) hiilihydraatia 14g, rasvaa 10g, proteiinia 8g, suolaa 0, 53g."},{"ingredients":"Raparperia, VEHN\u00c4JAUHOJA, sokeria, margariinia (kasvi\u00f6ljyt ja -rasvat [palmu, rapsi vaihtelevina osuuksina]).\nkauravispi, ruokasooda, sokeri, vaniljasokeri, omenaviinietikka, kaurajuoma, Vesi, kokonaan kovetetut kasvi\u00f6ljyt (kookos, rapsi), maltodekstriini, sokeri, emulgointiaineet (E 472e, E 435), stabilointiaineet (E 464, ksantaanikumi), happamuudens\u00e4\u00e4t\u00f6aine (kaliumhydroksidi), suola, aromi, v\u00e4ri (karotenoidit).","meta":{"1":[],"2":[],"0":["VE"]},"sku":"2587","nutrition":"Ravintoarvo 100g\/ energiaa 258kcal (1080kj), hiilihydraattia 25g, rasvaa 15g, proteiinia 4g","price":{"name":"Makeasti","value":{"normal":"1.50","graduate":"1.50","contract":"1.50","student_hyy":"1.50","graduate_hyy":"1.50","student":"1.50"}},"name":"Raparperipiirakka ja kermavaahtoa"}]},{"data":[{"ingredients":"H\u00e4rk\u00e4papurouhe, vesii,, rypsi\u00f6ljy, sipuli, porkkana, kes\u00e4kurpitsa, paprika sekoitus, tomaattia, rapsi\u00f6ljy\u00e4, punaviinietikkaa (s\u00e4il\u00f6nt\u00e4aine [kaliumdisulfiitti]), VALKOSIPULIA, kasvisliemijauhetta (suola, maltodekstriini, sipuli, kurpitsa, palsternakka, juuripersilja, kukkakaali, hiivauute, sokeri, porkkanamehujauhe, aromi, kasvirasva), fariinisokeria, oreganoa, timjamia, basilikaa, persiljaa, mustapippuri,\nHiilijalanj\u00e4lki: 0, 35 kg CO 2e \/ annos","meta":{"2":["Ilmastovalinta"],"1":[],"0":["G","[S]","VE"]},"sku":"858","nutrition":"Energiaa 106kcal (444kJ), hiilihydraattia 8g, rasvaa 5g, proteiinia 8g.","name":"H\u00e4rk\u00e4papubolognesea","price":{"value":{"graduate":"5.55","normal":"9.30","contract":"7.30","student_hyy":"2.95","graduate_hyy":"5.55","student":"2.95"},"name":"Vegaani"}},{"price":{"value":{"normal":"9.30","graduate":"5.55","student_hyy":"2.95","contract":"7.30","graduate_hyy":"5.55","student":"2.95"},"name":"Vegaani"},"name":"Karibian kasvispihvej\u00e4 ja BBQ-kastike","sku":"7561","nutrition":"Energia 115 kcal \/ 482 kJ, Rasva 5, 62 g, Hiilihydraatti 13, 01 g, Proteiini 2, 36 g, Suola 0, 89 g","meta":{"2":["Ilmastovalinta"],"1":["sulfiitteja"],"0":["G","[S]","VE"]},"ingredients":"Kasvispihvi: Porkkana, parsakaali, palsternakka, sipuli, perunahiutale, ruskea riisi, kikherne, vesi, sakeuttamisaine (E 461, E 407a), muunnettu maissit\u00e4rkkelys, jodioitu suola, kasvisliemi (sipuli, porkkana, purjosipuli, valkosipuli, sokeri, suola, auringonkukka\u00f6ljy, maissit\u00e4rkkelys, muskotti), persilja, mausteet (valkosipuli, curry, cayennepippuri, mustapippuri), aromi. Kasvi\u00f6ljy\u00e4).\nBBQ-KASTIKE (Tomaattipyree, sokeri, etikka, maissit\u00e4rkkelys, savusuola, mausteet (valkosipuli, piparjuuri, chilipippuri, juustokumina), suola, omenauute, savuaromi, sipuli), Ananasmurska (ananas, ananast\u00e4ysmehu), tomaattisose (vesi, tiivistetty tomaatti), savustettu jalapenochili, sokeri, sipuli, viinietikka, rapsi\u00f6ljy, paprika, oregano, laakerinlehti, timjami, limemehu., Hiilijalanj\u00e4lki: 0, 42 kg CO 2e \/ annos"},{"name":"Carbonara-kastike","price":{"name":"P\u00e4iv\u00e4n lounas","value":{"student":"2.95","graduate_hyy":"5.55","normal":"9.30","graduate":"5.55","contract":"7.30","student_hyy":"2.95"}},"sku":"791","nutrition":"Energiaa 131kcal (549kJ), hiilihydraattia 3g, rasvaa 11g, proteiinia 6g, suola 0, 87g.","meta":{"0":["G","L"],"1":["maitoa"],"2":[]},"ingredients":"Palvilapasuikale (SUOMI, viljaporsaanliha, vesi, stabilointiaineet (E 1412, E 450), jodioitu suola, sakeuttamisaineet (ksantaanikumi, E 407a), dekstroosi, hapettumisenestoaine E 301, s\u00e4il\u00f6nt\u00e4aine natriumnitriitti), Vesi, KIRNUMAITO, vesi, laktoositon rasvaton MAITO, kokonaan kovetettu palmu\u00f6ljy#, kookos\u00f6ljy, muunnettu t\u00e4rkkelys, emulgointiaineet (rasvahappojen sakkaroosiesterit (kasvirasvapohjainen), rasvahappojen mono- ja diglyseridit (kasvirasvapohjainen), SOIJALESITIINI), stabilointiaineet (guarkumi, johanneksenleip\u00e4puujauhe), laktaasientsyymi, arom TUOREJUUSTO (Past\u00f6roitu KERMA, rasvaton MAITOjauhe, sakeuttamisaineet (E 440, E 412), suola, s\u00e4il\u00f6nt\u00e4aine (E 202 kaliumsorbaatti), hapate.), Sipuli, Pekonirouhe (SUOMI, viljaporsaanliha, vesi, jodioitu suola, dekstroosi, stabilointiaine E 450, hapettumisenestoaine E 301, s\u00e4il\u00f6nt\u00e4aine natriumnitriitti), Maissit\u00e4rkkelys, Rypsi\u00f6ljy (rapsi\u00f6ljy), kanaliemijauhe v\u00e4h\u00e4suolainen (Glukoosisiirappi, suola, aromit, kananrasva, broilerin nahka- ja lihajauhe, hapot (sitruunahappo, maitohappo, kalsiumlaktaatti), mausteet (valkopippuri, kurkuma), lipstikka.), Mustapippuri., Hiilijalanj\u00e4lki: 0, 86 kg CO 2e \/ annos"},{"meta":{"2":["Ilmastovalinta"],"1":[],"0":["G","[S]","VE"]},"ingredients":"Ainesosat: Suomalainen gluteeniton kaurajyv\u00e4 (Gluteeniton t\u00e4ysjyv\u00e4KAURA).","name":"Gluteenitonta kauraa","price":{"value":{"graduate_hyy":"0.00","student":"0.00","graduate":"0.00","normal":"0.00","student_hyy":"0.00","contract":"0.00"},"name":"Lisuke"},"sku":"31","nutrition":"Energiaa 125 kcal (522 J), hiilihydraattia 19 g, rasvaa 2g, proteiinia 5g, suolaa 0g."},{"meta":{"0":["[S]","VE"],"2":[],"1":["gluteenia"]},"ingredients":"T\u00c4YSJYV\u00c4DURUMVEHN\u00c4JAUHO, vesi.","name":"T\u00e4ysjyv\u00e4spagettia","price":{"value":{"student":"0.00","graduate_hyy":"0.00","normal":"0.00","graduate":"0.00","contract":"0.00","student_hyy":"0.00"},"name":"Lisuke"},"nutrition":"Energiaa 121 kcal (509 kJ), hiilihydraattia 22 g, rasvaa 1g, proteiinia 4g, suolaa 0, 01 g.","sku":"21"},{"meta":{"0":["G","VE"],"1":[],"2":[]},"ingredients":"Kauravispi Vesi, kokonaan kovetetut kasvi\u00f6ljyt (kookos, rapsi), sokeri, KAURAuute, Kaakaomassa, sokeri, kaakaovoi, emulgointiaine (auringonkukkalesitiini), aromi (vanilja). V\u00e4hint\u00e4\u00e4n kaakaota, emulgointiaineet (E 435, E 475), stabilointiaine (E 464), happamuudens\u00e4\u00e4t\u00f6aine (natriumsitraatti), suola, v\u00e4ri (karotenoidit). , sokeri, tumma suklaa, kaakaojauhe, minttusiirappi, minttu","name":"Minttu-suklaamousse","price":{"name":"Makeasti","value":{"contract":"1.50","student_hyy":"1.50","graduate":"1.50","normal":"1.50","graduate_hyy":"1.50","student":"1.50"}},"sku":"2646","nutrition":"Energiaa 223kcal (931kJ),, hiilihydraattia 29g, rasvaa 8g, proteiinia 5g."}],"message":null,"date":"Pe 01.08."},{"message":null,"date":"La 02.08.","data":[]},{"date":"Su 03.08.","message":null,"data":[]},{"data":[],"message":null,"date":"Ma 04.08."},{"data":[],"date":"Ti 05.08.","message":null},{"data":[],"date":"Ke 06.08.","message":null},{"data":[],"date":"To 07.08.","message":null},{"date":"Pe 08.08.","message":null,"data":[]},{"message":null,"date":"La 09.08.","data":[]},{"date":"Su 10.08.","message":null,"data":[]}]}},{"id":1355,"title":"Chemicum Opettajien ravintola","slug":"chemicum-opettajien-ravintola","permalink":"https:\/\/unicafe.fi\/restaurants\/chemicum-opettajien-ravintola\/","location":[{"id":45,"name":"Kumpula"}],"address":"A.I.Virtasenaukio 1","visitingHours":"2","blocksHtml":"","menuData":{"name":"Chemicum Opettajien ravintola","areacode":2,"id":41,"phone":null,"email":null,"feedback_address":"https:\/\/smiley.link\/DJXFWTMC","description":"Esteett\u00f6myys<br \/>- sis\u00e4\u00e4nk\u00e4ynti : p\u00e4\u00e4ovesta yhdysk\u00e4yt\u00e4v\u00e4n kautta, matalat kynnykset (raskaat ovet - vahtimestarit auttavat tarvittaessa).<br \/>- inva-wc p\u00e4\u00e4aulassa ovesta vasemmalle.","visitingHours":{"business":{"name":null,"items":[{"closedException":true,"label":"Ma\u2013Pe","hours":"11:00\u201313:30"},{"closedException":true,"label":"La\u2013Su","hours":"Suljettu"},{"exception":true,"label":"19.6.\u201317.8.","hours":"Suljettu"}]},"breakfast":false,"bistro":false,"lounas":{"name":null,"items":[{"closedException":false,"label":"Ma\u2013Pe","hours":"11:00\u201313:30"},{"closedException":false,"label":"La\u2013Su","hours":"Suljettu"},{"exceptionUndefinedTime":false,"label":"Ma-Su","hours":"Suljettu"}]}},"menus":[{"data":[],"date":"Ma 28.07.","message":null},{"data":[],"message":null,"date":"Ti 29.07."},{"data":[],"date":"Ke 30.07.","message":null},{"data":[],"date":"To 31.07.","message":null},{"data":[],"message":null,"date":"Pe 01.08."},{"data":[],"date":"La 02.08.","message":null},{"data":[],"message":null,"date":"Su 03.08."},{"message":null,"date":"Ma 04.08.","data":[]},{"data":[],"date":"Ti 05.08.","message":null},{"date":"Ke 06.08.","message":null,"data":[]},{"date":"To 07.08.","message":null,"data":[]},{"message":null,"date":"Pe 08.08.","data":[]},{"date":"La 09.08.","message":null,"data":[]},{"message":null,"date":"Su 10.08.","data":[]}]}},{"id":1353,"title":"Cafe Portaali","slug":"cafe-portaali","permalink":"https:\/\/unicafe.fi\/restaurants\/cafe-portaali\/","location":[{"id":44,"name":"Keskusta"}],"address":"Vuorikatu 3","visitingHours":"4","blocksHtml":"","menuData":{"areacode":1,"name":"Cafe Portaali","id":5,"phone":"+358 50 416 7890 (vuorop\u00e4\u00e4llikk\u00f6), +358 50 557 6080 (kahvila)","email":"porthania@unicafe.fi","feedback_address":"","description":"Esteett\u00f6myys<br \/>- sis\u00e4\u00e4nk\u00e4ynti : Vuorikadun ja Fabianinkadun puolelta, hissi.","visitingHours":{"business":{"name":null,"items":[{"closedException":true,"label":"Ma\u2013Pe","hours":"\u2013"},{"closedException":true,"label":"La\u2013Su","hours":"Suljettu"},{"exceptionUndefinedTime":true,"label":"Ma-Su","hours":"Suljettu"}]},"breakfast":false,"bistro":false,"lounas":{"name":null,"items":[{"closedException":true,"label":"Ma\u2013Pe","hours":"\u2013"},{"closedException":true,"label":"La\u2013Su","hours":"Suljettu"},{"exceptionUndefinedTime":true,"label":"Ma-Su","hours":"Suljettu"}]}},"menus":[{"data":[],"message":null,"date":"Ma 28.07."},{"data":[],"message":null,"date":"Ti 29.07."},{"data":[],"date":"Ke 30.07.","message":null},{"message":null,"date":"To 31.07.","data":[]},{"data":[],"message":null,"date":"Pe 01.08."},{"data":[],"date":"La 02.08.","message":null},{"data":[],"date":"Su 03.08.","message":null},{"data":[],"message":null,"date":"Ma 04.08."},{"message":null,"date":"Ti 05.08.","data":[]},{"date":"Ke 06.08.","message":null,"data":[]},{"message":null,"date":"To 07.08.","data":[]},{"data":[],"date":"Pe 08.08.","message":null},{"date":"La 09.08.","message":null,"data":[]},{"data":[],"message":null,"date":"Su 10.08."}]}},{"id":1335,"title":"Biokeskus","slug":"biokeskus","permalink":"https:\/\/unicafe.fi\/restaurants\/biokeskus\/","location":[{"id":47,"name":"Viikki"}],"address":"Viikinkaari 9, 00710 Helsinki","visitingHours":"2","blocksHtml":"","menuData":{"id":16,"name":"Biokeskus","areacode":5,"phone":"Vuorop\u00e4\u00e4llikk\u00f6 050 433 0331 Keitti\u00f6mestari 050 462 9403","email":"biokeskus@unicafe.fi","feedback_address":"https:\/\/smiley.link\/NXTMPRMV","description":"Esteett\u00f6myys<br \/>- sis\u00e4\u00e4nk\u00e4ynti: p\u00e4\u00e4ovesta, py\u00f6r\u00e4tuolireitti kiinte\u00e4\u00e4 luiskaa pitkin.<br \/>- inva-wc ovesta oikealla naulakoiden luona.","visitingHours":{"business":{"name":null,"items":[{"closedException":false,"label":"Ma\u2013Pe","hours":"08:30\u201317:00"},{"closedException":false,"label":"La\u2013Su","hours":"Suljettu"},{"exception":true,"label":"2.6.\u201318.6.","hours":"08:30\u201317:00"},{"exception":true,"label":"23.6.\u20138.8.","hours":"08:30\u201315:00"},{"exception":true,"label":"19.6.","hours":"8:30\u201315:00"}]},"breakfast":{"name":"Breakfast","items":[{"closedException":false,"label":"Ma\u2013Pe","hours":"08:30\u201310:00"},{"closedException":false,"label":"La\u2013Su","hours":"Suljettu"},{"exceptionUndefinedTime":false,"label":"Ma-Su","hours":"Suljettu"}]},"bistro":false,"lounas":{"name":null,"items":[{"closedException":false,"label":"Ma\u2013Pe","hours":"11:00\u201317:00"},{"closedException":false,"label":"La\u2013Su","hours":"Suljettu"},{"exception":true,"label":"23.6.\u20138.8.","hours":"11:00\u201315:00"},{"exception":true,"label":"19.6.","hours":"11:00\u201315:00"}]}},"menus":[{"date":"Ma 28.07.","message":null,"data":[{"name":"Nyht\u00f6kaura Ratatouille","price":{"name":"Vegaani","value":{"graduate_hyy":"5.55","student":"2.95","normal":"9.30","graduate":"5.55","contract":"7.30","student_hyy":"2.95"}},"nutrition":"Ravintoarvo 100g \/ energiaa 11 k 3cal (4 kJ 74), hiilihydraattia 6, 2 g, rasvaa 5, 6 g, proteiinia 9 g, suola 0, 7 g","sku":"1312","meta":{"0":["G","[S]","VE"],"2":[],"1":["sulfiitteja"]},"ingredients":"Nyht\u00f6kaura (Kasviproteiinisuikaleet (herneproteiini, vesi, gluteeniton T\u00c4YSJYV\u00c4KAURAJAUHO, gluteeniton KAURAROUHE), marinadi (vesi, rapsi\u00f6ljy, luontaiset aromit, sokeri, yrttiuute). ),, kes\u00e4kurpitsa, tomaatti, paprika, sipuli, rypsi\u00f6ljy, sitruuna, persilja, balsamiviinietikka (ryp\u00e4lemehutiiviste, v\u00e4ri (E 150d). Sis\u00e4lt\u00e4\u00e4 SULFIITTEJA.), sokeri, pansuola (sulfaatti), valkosipulimurska (sokeri, valkoviinietikka, happamuudens\u00e4\u00e4t\u00f6aine (E 330), s\u00e4il\u00f6nt\u00e4aine (E 211)), timjami, mustapippuri., Hiilijalanj\u00e4lki: 0, 55 kg CO 2e \/ annos"},{"ingredients":"Beanit h\u00e4rk\u00e4papusuikale (Vesi, herneproteiini, kasvi\u00f6ljyt (rypsi ja kokonaan kovetettu rypsi), h\u00e4rk\u00e4papu (9 %, Suomi), suola, mustapippuri), Amerikansalaatti, Porkkanaraaste, Mango, Chili hummus (Kikherne, vesi, SEESAMINSIEMENTAHNA, rapsi\u00f6ljy, sitruunat\u00e4ysmehu, valkosipuli, mausteet (mm. chili, kurkuma, mustapippuri), merisuola, sokeri, s\u00e4il\u00f6nt\u00e4aineet (sitruunahappo, kaliumsorbaatti).), kaurasuurimo gluteeniton, Punasipuli, Suolap\u00e4hkin\u00e4 (Maap\u00e4hkin\u00e4, kasvi\u00f6ljy (auringonkukka), suola.), salaattisekoitus (romainesalaatti, friseesalaatti, punasalaatti ja vuonankaali), punaviinietikka (punaviinietikka, s\u00e4il\u00f6nt\u00e4aine (kaliumvetySULFIITTI)), Korianteri, Sokeri, Suola (natriumkloridi, kaliumkloridi, magnesiumsulfaatti, lysiinihydrokloridi, paakkuuntumisenestoaine (piioksidi), kaliumjodidi.), Pesto, vihre\u00e4 p\u00e4hkin\u00e4t\u00f6n (auringonkukka\u00f6ljy, tiivistetty basilika, suola, maissit\u00e4rkkelys, valkosipuli, viinietikka, fruktoosi, happamuudens\u00e4\u00e4t\u00f6aineet (E 270, E 330),\nHiilijalanj\u00e4lki: 0, 49 kg CO 2e\/ annos","meta":{"0":["G","[S]","VE"],"1":["maap\u00e4hkin\u00e4\u00e4","seesaminsiemeni\u00e4"],"2":["Ilmastovalinta"]},"nutrition":"Energia 145 kcal \/ 607 kJ, Rasva 8, 35 g, Hiilihydraatti 8, 92 g, Proteiini 7, 27 g, Suola 0, 42 g","sku":"20012","name":"Pesto BeanIt Bowl","price":{"name":"Vegaani","value":{"graduate":"5.55","normal":"9.30","student_hyy":"2.95","contract":"7.30","graduate_hyy":"5.55","student":"2.95"}}},{"nutrition":"Energiaa 105kcal (439kJ), hiilihydraattia 3g, rasvaa 5g, proteiinia 12g.","sku":"2141","price":{"value":{"student_hyy":"2.95","contract":"7.30","graduate":"5.55","normal":"9.30","graduate_hyy":"5.55","student":"2.95"},"name":"P\u00e4iv\u00e4n lounas"},"name":"Seit\u00e4 pestokastikkeessa","ingredients":"SEITI\u00c4, vett\u00e4, kasvirasvavalmistetta (MAITO, rypsi\u00f6ljy, osittain kovetettu palmu\u00f6ljy, muunnettu t\u00e4rkkelys E 1450, emulgointi- ja stabilointiaineet E 1442, E 412, E 472e, maltodekstriini, sokeri, happamuudens\u00e4\u00e4t\u00f6aine E 331, aromi, v\u00e4ri E 160a), purjosipulia, pestoa (auringonkukka\u00f6ljy (65 %, EU ja ei-EU), tiivistetty basilika (30 %, Italia), suola, maissit\u00e4rkkelys, valkosipuli, viinietikka, fruktoosi, happamuudens\u00e4\u00e4t\u00f6aineet (E 270, E 330).maissit\u00e4rkkelyst\u00e4, jodioitua suolaa, basilikaa.\nHiilijalanj\u00e4lki: 0, 50 kg CO 2e \/ annos","meta":{"0":["G","L","[S]"],"1":["kalaa","maitoa"],"2":["Ilmastovalinta"]}},{"ingredients":"Ainesosat: Suomalainen gluteeniton kaurajyv\u00e4 (Gluteeniton t\u00e4ysjyv\u00e4KAURA).","meta":{"1":[],"2":["Ilmastovalinta"],"0":["G","[S]","VE"]},"sku":"31","nutrition":"Energiaa 125 kcal (522 J), hiilihydraattia 19 g, rasvaa 2g, proteiinia 5g, suolaa 0g.","name":"Gluteenitonta kauraa","price":{"value":{"contract":"0.00","student_hyy":"0.00","graduate":"0.00","normal":"0.00","student":"0.00","graduate_hyy":"0.00"},"name":"Lisuke"}},{"nutrition":"Energiaa 65kcal (271kJ), hiilihydraattia 13g, rasvaa 0g, proteiinia 2g.","sku":"Lis\u00e4ke","name":"Keitetty\u00e4 perunaa","price":{"value":{"student":"0.00","graduate_hyy":"0.00","graduate":"0.00","normal":"0.00","student_hyy":"0.00","contract":"0.00"},"name":"Lisuke"},"ingredients":"Perunaa","meta":{"2":["Ilmastovalinta"],"1":[],"0":["[S]","VE"]}},{"meta":{"2":[],"1":[],"0":[]},"ingredients":"","price":{"name":"Tiedoitus","value":{"graduate":"0.00","normal":"0.00","contract":"0.00","student_hyy":"0.00","student":"0.00","graduate_hyy":"0.00"}},"name":"Ateria koostuu yhdest\u00e4 p\u00e4\u00e4ruoasta, salaatista, leiv\u00e4st\u00e4, yhdest\u00e4 juomasta ja lisukkeista. Buffethinnan maksavat asiakkaat, jotka ottavat useampaa kuin yht\u00e4 p\u00e4\u00e4ruokaa p\u00e4iv\u00e4n lounaan yhteydess\u00e4.","nutrition":"","sku":"Ateria koostuu yhdest\u00e4 p\u00e4\u00e4ruoasta, salaatista, leiv\u00e4st\u00e4, yhdest\u00e4 juomasta ja lisukkeista. Buffethinnan maksavat asiakkaat, jotka ottavat useampaa kuin yht\u00e4 p\u00e4\u00e4ruokaa p\u00e4iv\u00e4n lounaan yhteydess\u00e4."},{"ingredients":"","meta":{"0":[],"2":[],"1":[]},"nutrition":"","sku":"The meal consists of one main, salad, bread, one drink, and warm garnishes. Buffet price applies to customers who take more than one main dish from days lunch","price":{"value":{"contract":"0.00","student_hyy":"0.00","normal":"0.00","graduate":"0.00","graduate_hyy":"0.00","student":"0.00"},"name":"Tiedoitus"},"name":"The meal consists of one main, salad, bread, one drink, and warm garnishes. Buffet price applies to customers who take more than one main dish from days lunch"}]},{"data":[{"sku":"1020","nutrition":"Energiaa 114kcal (479kJ), hiilihydraattia 11g, rasvaa 5g, proteiinia 2g, suola 0, 2 g","name":"Pesto-kasvislasagnea","price":{"value":{"normal":"9.30","graduate":"5.55","contract":"7.30","student_hyy":"2.95","graduate_hyy":"5.55","student":"2.95"},"name":"Vegaani"},"ingredients":"Kes\u00e4kurpitsa, Tomaatti, kuutio Kauraruoka (Kaurapohja (vesi, t\u00e4ysjyv\u00e4KAURA), rypsi\u00f6ljy, kalsiumkarbonaatti, suola, stabilointiaine (gellaanikumi), riboflaviini (B 2), fooli happo, jodi, D 2-vitamiini, B 12-vitamiini.), lasagnelevy (DURUMVEHN\u00c4, vesi.) (gluteeni), Sipuli, Vehn\u00e4, jauho (VEHN\u00c4, jauhonparanne (askorbiinihappo)) (gluteeni), Margariini (Kasvirasva (palmu\u00f6ljy (SG), kookosrasva), rypsi\u00f6ljy, vesi, suola, emulgointiaineet (E 471, E 472c, E 322 auringonkukkalesitiini), happamuudens\u00e4\u00e4t\u00f6aineet (E 330, E 500), aromi, A- ja D 2-vitamiini, v\u00e4ri (E 160a).), Pinaatti, Juustoraaste vegaaninen (vesi, kookos\u00f6ljy, muunnettu t\u00e4rkkelys (E 1422, E 1450, E 1420), ravintohiiva, maissit\u00e4rkkelys, sakeuttamisaine (E 415), suola, valkoviinietikka, kalsium (kalsiumlaktaatti), s\u00e4il\u00f6nt\u00e4aine (E 202), D 2-vitamiini. \u00d6ljy, rypsi (rypsi\u00f6ljy), Basilika, tahna (Auringonkukka\u00f6ljy, basilika, suola, arominvahvenne (natriumglutamaatti), sokeri, rypsi\u00f6ljy, stabilointiaine (kalsiumkloridi)), valkosipulimurska (valkosipuli, vesi, sokeri, valkoviinietikka, happamuudens\u00e4\u00e4t\u00f6aine (E 330), s\u00e4il\u00f6nt\u00e4aine (E 211)), Sitruuna, koko Auringonkukansiemen, Suola, pansuola, (Natriumkloridi, kaliumkloridi, magnesiumsulfaatti, lysiinihydrokloridi, paakkuuntumisenestoaine (piioksidi), kaliumjodidi.), Basilika, Valkopippuri, jauhettu (Valkopippuri), Mustapippuri, jauhettu (Mustapippuri.), Pippuri, musta rouhe, Hiilijalanj\u00e4lki: 0, 43 kg CO 2e \/ annos","meta":{"0":["[S]","VE"],"1":["gluteenia"],"2":["Ilmastovalinta"]}},{"sku":"950012","nutrition":"Energiaa 125 kcal \/ 522 kJ, Rasva 3, 85 g, Hiilihydraatti 10, 73 g, Proteiini 6, 73 g, Suola 0, 35 g","price":{"value":{"contract":"7.30","student_hyy":"2.95","graduate":"5.55","normal":"9.30","student":"2.95","graduate_hyy":"5.55"},"name":"Vegaani"},"name":"Meksikon H\u00e4rkis salaatti Bowl","ingredients":"H\u00e4rk\u00e4papusuikale (Vesi, herneproteiini, h\u00e4rk\u00e4papu (8, 6 %, Suomi), rapsi\u00f6ljy. Saattaa sis\u00e4lt\u00e4\u00e4 pieni\u00e4 m\u00e4\u00e4ri\u00e4 gluteenitonta kauraa) maissi, bbq-kastike (Sokeri, vesi, v\u00e4kiviinaetikka, ruokosokerimelassi, tomaattisose, siirappi, muunnettu maissit\u00e4rkkelys, mausteet (sipuli, valkosipuli), suola, perunajauho, s\u00e4il\u00f6nt\u00e4aineet (E 211, E 202), aromit (mm. savu), v\u00e4ri (E 150c), sakeuttamisaine (E 415)., jalapenos\u00e4ilyke (3 %) [jalapenopaprika, vesi, etikka, suola, stabilointiaine (E 509), valkosipuli], suola, s\u00e4il\u00f6nt\u00e4aine (E 202).) amerikansalaatti, porkkanaraaste, mango, kaurasuurimo gluteeniton, pikkel\u00f6itu punasipuli (Punasipuli (70%), omenviinietikka (SULFIITTI), sokeri, v\u00e4riaine (E 163), kiinteytt\u00e4misaine: kalsiumkloridi (E 509), suola, happamuudens\u00e4\u00e4t\u00f6aine: sitruunahappo (E 330).), maissilastu, Hummus (kikherne, SEESAMINSIEMENTAHNA, rapsi\u00f6ljy, sitruunat\u00e4ysmehu, valkosipuli, mausteet, merisuola, sokeri, s\u00e4il\u00f6nt\u00e4aineet (sitruunahappo, kaliumsorbaatti).),, Hiilijalanj\u00e4lki: 0, 49 kg CO 2e \/ annos","meta":{"2":[],"1":["seesaminsiemeni\u00e4","soijaa"],"0":["G","[S]","VE"]}},{"nutrition":"Ravintoarvo 100g\/ energiaa 115kcal (497kj), hiilihydraattia 4g, rasvaa 7g, proteiinia 9g.","sku":"2582","name":"Kanakastiketta Tikka Masala","price":{"name":"P\u00e4iv\u00e4n lounas","value":{"student_hyy":"2.95","contract":"7.30","graduate":"5.55","normal":"9.30","student":"2.95","graduate_hyy":"5.55"}},"ingredients":"Kananliha (Suomi), JOGURTTI (MAITO), tomaatti, sipuli, garam masala (juustokumina, kardemumma, korianteri, mustapippuri, neilikka, kaneli, cayannepippuri), inkiv\u00e4\u00e4ri, chili, VALKOSIPULI, sokeri, jodioitu suola, maissit\u00e4rkkelys.\nHiilijalanj\u00e4lki: 0, 65 kg CO 2e \/ annos","meta":{"0":["G","L"],"2":[],"1":["maitoa"]}},{"ingredients":"Riisi\u00e4, vett\u00e4.","meta":{"0":["G","VE"],"1":[],"2":[]},"nutrition":"Energiaa 116kcal, hiilihydraattia 25g, rasvaa 0g, proteiinia 3g, suolaa 0g.","sku":"Lis\u00e4ke","name":"H\u00f6yrytetty\u00e4 riisi\u00e4","price":{"name":"Lisuke","value":{"contract":"0.00","student_hyy":"0.00","graduate":"0.00","normal":"0.00","student":"0.00","graduate_hyy":"0.00"}}},{"sku":"Ateria koostuu yhdest\u00e4 p\u00e4\u00e4ruoasta, salaatista, leiv\u00e4st\u00e4, yhdest\u00e4 juomasta ja lisukkeista. Buffethinnan maksavat asiakkaat, jotka ottavat useampaa kuin yht\u00e4 p\u00e4\u00e4ruokaa p\u00e4iv\u00e4n lounaan yhteydess\u00e4.","nutrition":"","name":"Ateria koostuu yhdest\u00e4 p\u00e4\u00e4ruoasta, salaatista, leiv\u00e4st\u00e4, yhdest\u00e4 juomasta ja lisukkeista. Buffethinnan maksavat asiakkaat, jotka ottavat useampaa kuin yht\u00e4 p\u00e4\u00e4ruokaa p\u00e4iv\u00e4n lounaan yhteydess\u00e4.","price":{"value":{"student":"0.00","graduate_hyy":"0.00","contract":"0.00","student_hyy":"0.00","graduate":"0.00","normal":"0.00"},"name":"Tiedoitus"},"ingredients":"","meta":{"2":[],"1":[],"0":[]}},{"meta":{"2":[],"1":[],"0":[]},"ingredients":"","name":"The meal consists of one main, salad, bread, one drink, and warm garnishes. Buffet price applies to customers who take more than one main dish from days lunch","price":{"name":"Tiedoitus","value":{"contract":"0.00","student_hyy":"0.00","graduate":"0.00","normal":"0.00","student":"0.00","graduate_hyy":"0.00"}},"sku":"The meal consists of one main, salad, bread, one drink, and warm garnishes. Buffet price applies to customers who take more than one main dish from days lunch","nutrition":""}],"message":null,"date":"Ti 29.07."},{"data":[{"name":"Vihre\u00e4\u00e4 tofucurrya","price":{"value":{"normal":"9.30","graduate":"5.55","student_hyy":"2.95","contract":"7.30","student":"2.95","graduate_hyy":"5.55"},"name":"Vegaani"},"nutrition":"Energiaa 80kcal (335kJ), hiilihydraattia 5g, rasvaa 5g, proteiinia 4g.","sku":"716","meta":{"1":["soijaa"],"2":["Ilmastovalinta"],"0":["G","[S]","VE"]},"ingredients":"Kookosmaitoa, Tofu (SOIJAPAPU) parsakaalia, vihre\u00e4\u00e4 PAPUA, sipulia, rypsi\u00f6ljy\u00e4, vihre\u00e4\u00e4 currytahnaa (Sitruunaruoho, vihre\u00e4 chili 15 %, vesi, sipuli, valkosipuli, galangal, suola, korianteri, ryppylime, kurkuma. ), SOIJAKASTIKETTA, maissit\u00e4rkkelyst\u00e4, sokeria, kasvisliemijauhetta (Suola, kuivattu glukoosisiirappi, aromit, sipulijauhe 5, 8 %, muunnettu t\u00e4rkkelys, maltodekstriini, rapsi\u00f6ljy, kasvistiiviste 3, 4 % ( porkkana, purjo, herkkusieni, parsakaali, paprika), mausteet (kurkuma, valkopippuri, korianterin siemenet), sokeri, etikkauute.), lime\u00e4, korianteria, basilikaa,, Hiilijalanj\u00e4lki: 0, 41 kg CO 2e \/ annos"},{"ingredients":"Fermentoitu h\u00e4rk\u00e4papu (Fermentoitu h\u00e4rk\u00e4papu, vesi, merisuola ja E 150d), Amerikansalaatti, Porkkanaraaste, Mango,, Chili hummus (Kikherne, vesi, SEESAMINSIEMENTAHNA, rapsi\u00f6ljy, sitruunat\u00e4ysmehu, valkosipuli, mausteet (mm. chili, kurkuma, mustapippuri), merisuola, sokeri, s\u00e4il\u00f6nt\u00e4aineet (sitruunahappo, kaliumsorbaatti).), kaurasuurimo gluteeniton, Punasipuli, Suolap\u00e4hkin\u00e4 (Maap\u00e4hkin\u00e4, kasvi\u00f6ljy (auringonkukka), suola.), Sataykastike (Vesi, MAAP\u00c4HKIN\u00c4, sokeri, kookosmaito, suola, auringonkukka\u00f6ljy, valkosipuli, soijapaputahna (SOIJAPAPU, suola, VEHN\u00c4JAUHO, riisijauho, sokeri, vesi), tamarindiuute, kuivattu punainen chili, SEESAMI\u00d6LJY, curryjauhe (SINAPINSIEMEN, korianteri, kurkuma, sarviapilansiemen, VEHN\u00c4JAUHO, suola, chili, fenkoli, juustokumina, mustapippuri), juustokumina, soijakastike (SOIJAPAPU-UUTE, suola, VEHN\u00c4JAUHO, sokeri), SOIJAPROTEIINI, arominvahvenne (E 635).), salaattisekoitus (romainesalaatti, friseesalaatti, punasalaatti ja vuonankaali), punaviinietikka (punaviinietikka, s\u00e4il\u00f6nt\u00e4aine (kaliumvetySULFIITTI)), Korianteri, Sokeri, Suola (natriumkloridi, kaliumkloridi, magnesiumsulfaatti, lysiinihydrokloridi, paakkuuntumisenestoaine (piioksidi), kaliumjodidi.)\nHiilijalanj\u00e4lki: 0, 49 kg CO 2e \/ annos","meta":{"1":["gluteenia","maap\u00e4hkin\u00e4\u00e4","seesaminsiemeni\u00e4","sinapinsiemeni\u00e4","sinappia","soijaa"],"2":["Ilmastovalinta"],"0":["[S]","VE"]},"nutrition":"118 kcal \/ 493 kJ, Rasva 3, 8 g, Hiilihydraatti 9, 59 g, Proteiini 5, 25 g, Suola 0, 45 g","sku":"20002","price":{"name":"Vegaani","value":{"graduate_hyy":"5.55","student":"2.95","contract":"7.30","student_hyy":"2.95","normal":"9.30","graduate":"5.55"}},"name":"Satay h\u00e4rk\u00e4papubowl"},{"sku":"7579","nutrition":"Energia 159kcal \/ 665kJ, Rasva 7, 71g, Hiilihydraatti 14, 32g, Proteiini 7, 4g, Suola 0, 35g","price":{"value":{"contract":"7.30","student_hyy":"2.95","graduate":"5.55","normal":"9.30","student":"2.95","graduate_hyy":"5.55"},"name":"P\u00e4iv\u00e4n lounas"},"name":"Kana-pekonipastaa","ingredients":"Broilerin reisiliha (SUOMI), rypsi\u00f6ljy, pasta (DURUMVEHN\u00c4JAUHO, vesi), punainen paprika, tomaatti, kes\u00e4kurpitsa, sipuli, keltainen paprika, punainen paprika, vihre\u00e4 paprika, tomaatti, tomaattimehu, tuorejuusto (Past\u00f6roitu KERMA, rasvaton MAITOjauhe, sakeuttamisaineet (E 440, E 412), suola, s\u00e4il\u00f6nt\u00e4aine (E 202 kaliumsorbaatti), hapate. (MAITO)), Sipuli, viljaporsaanliha (SUOMI), vesi, jodioitu suola, dekstroosi, stabilointiaine E 450, hapettumisenestoaine E 301, s\u00e4il\u00f6nt\u00e4aine natriumnitriitti, rapsi\u00f6ljy, tomaatti, Basilika, maissit\u00e4rkkelys, Sokeri, kanaliemijauhe v\u00e4h\u00e4suolainen (Glukoosisiirappi, suola, aromit, kananrasva, broilerin nahka- ja lihajauhe, hapot (sitruunahappo, maitohappo, kalsiumlaktaatti), mausteet (valkopippuri, kurkuma), lipstikka), suola (Natriumkloridi, kaliumkloridi, magnesiumsulfaatti, lysiinihydrokloridi, paakkuuntumisenestoaine (piioksidi), kaliumjodidi), Mustapippuri, Timjami\nHiilijalanj\u00e4lki: 0, 83 kg CO 2e \/ annos","meta":{"0":["L"],"2":[],"1":["gluteenia","maitoa"]}},{"price":{"name":"Lisuke","value":{"graduate_hyy":"0.00","student":"0.00","student_hyy":"0.00","contract":"0.00","graduate":"0.00","normal":"0.00"}},"name":"Gluteenitonta kauraa","sku":"31","nutrition":"Energiaa 125 kcal (522 J), hiilihydraattia 19 g, rasvaa 2g, proteiinia 5g, suolaa 0g.","meta":{"0":["G","[S]","VE"],"2":["Ilmastovalinta"],"1":[]},"ingredients":"Ainesosat: Suomalainen gluteeniton kaurajyv\u00e4 (Gluteeniton t\u00e4ysjyv\u00e4KAURA)."},{"ingredients":"Perunaa","meta":{"1":[],"2":["Ilmastovalinta"],"0":["[S]","VE"]},"sku":"Lis\u00e4ke","nutrition":"Energiaa 65kcal (271kJ), hiilihydraattia 13g, rasvaa 0g, proteiinia 2g.","name":"Keitetty\u00e4 perunaa","price":{"value":{"graduate":"0.00","normal":"0.00","student_hyy":"0.00","contract":"0.00","student":"0.00","graduate_hyy":"0.00"},"name":"Lisuke"}},{"name":"Ateria koostuu yhdest\u00e4 p\u00e4\u00e4ruoasta, salaatista, leiv\u00e4st\u00e4, yhdest\u00e4 juomasta ja lisukkeista. Buffethinnan maksavat asiakkaat, jotka ottavat useampaa kuin yht\u00e4 p\u00e4\u00e4ruokaa p\u00e4iv\u00e4n lounaan yhteydess\u00e4.","price":{"name":"Tiedoitus","value":{"graduate_hyy":"0.00","student":"0.00","contract":"0.00","student_hyy":"0.00","graduate":"0.00","normal":"0.00"}},"sku":"Ateria koostuu yhdest\u00e4 p\u00e4\u00e4ruoasta, salaatista, leiv\u00e4st\u00e4, yhdest\u00e4 juomasta ja lisukkeista. Buffethinnan maksavat asiakkaat, jotka ottavat useampaa kuin yht\u00e4 p\u00e4\u00e4ruokaa p\u00e4iv\u00e4n lounaan yhteydess\u00e4.","nutrition":"","meta":{"0":[],"2":[],"1":[]},"ingredients":""},{"nutrition":"","sku":"The meal consists of one main, salad, bread, one drink, and warm garnishes. Buffet price applies to customers who take more than one main dish from days lunch","price":{"name":"Tiedoitus","value":{"normal":"0.00","graduate":"0.00","student_hyy":"0.00","contract":"0.00","student":"0.00","graduate_hyy":"0.00"}},"name":"The meal consists of one main, salad, bread, one drink, and warm garnishes. Buffet price applies to customers who take more than one main dish from days lunch","ingredients":"","meta":{"0":[],"1":[],"2":[]}}],"message":null,"date":"Ke 30.07."},{"data":[{"meta":{"0":["G","VE"],"2":["Ilmastovalinta"],"1":[]},"ingredients":"Beanit (herneproteiini, rypsi\u00f6ljy), h\u00e4rk\u00e4papu, suola, mustapippuri), tomaatti, kes\u00e4kurpitsa, porkkana, paprika, sipuli, maissit\u00e4rkkelys, rypsi\u00f6ljy, kasvisliemi (suola, glukoosisiirappi, aromi, sipuli, modifioitu t\u00e4rkkelys, maltodekstriini, rapsi\u00f6ljy, kasvistiivistett\u00e4 (porkkana, purjo, herkkusieni, parsakaali, paprika), mausteet, sokeri, etikkauute, rosmariiniuute), savuchilipyree, suola, etikka, sokeri, sitruskuoren kuitu, savustettu chipotle, sakeuttamisaine (ksantaanikumi), oliivi, lehtipinaatti, maissit\u00e4rkkelys, pansuola (sulfaatti), pinaatti, mustapippuri, VALKOSIPULI, basilika, timjami, Hiilijalanj\u00e4lki: 0, 49 kg CO 2e \/ annos","price":{"name":"Vegaani","value":{"graduate_hyy":"5.55","student":"2.95","student_hyy":"2.95","contract":"7.30","normal":"9.30","graduate":"5.55"}},"name":"V\u00e4limerellinen Beanit kastike","sku":"1309","nutrition":"Ravintoarvo 100g \/ energiaa 92 kcal (387 kJ), hiilihydraattia 4, 5 g, rasvaa 4 g, proteiinia 5, 5 g, suola 0, 8 g"},{"ingredients":"Nyht\u00f6kaura (Vesi, KAURA (gluteeniton t\u00e4ysjyv\u00e4KAURAjauho*, gluteeniton KAURAlese*), herneproteiini, h\u00e4rk\u00e4papuproteiini, rapsi\u00f6ljy.), Amerikansalaatti, Porkkanaraaste, Mango, Chili hummus (Kikherne, vesi, SEESAMINSIEMENTAHNA, rapsi\u00f6ljy, sitruunat\u00e4ysmehu, valkosipuli, mausteet (mm. chili, kurkuma, mustapippuri), merisuola, sokeri, s\u00e4il\u00f6nt\u00e4aineet (sitruunahappo, kaliumsorbaatti).), Gluteeniton kaurasuurimo (Suomalainen KAURA, gluteeniton) Punasipuli, Suolap\u00e4hkin\u00e4 (Maap\u00e4hkin\u00e4, kasvi\u00f6ljy (auringonkukka), suola.), salaattisekoitus (romainesalaatti, friseesalaatti, punasalaatti ja vuonankaali), punaviinietikka (punaviinietikka, s\u00e4il\u00f6nt\u00e4aine (kaliumvetySULFIITTI)), Korianteri, Sokeri, Suola (natriumkloridi, kaliumkloridi, magnesiumsulfaatti, lysiinihydrokloridi, paakkuuntumisenestoaine (piioksidi), kaliumjodidi.), Korean BBQ-kastike (vesi, SOIJAkastike (vesi, SOIJAPROTEIINIhydrolysaatti, suola), chilitahna (chili, suola, s\u00e4il\u00f6nt\u00e4aineet E 260 ja E 202), inkiv\u00e4\u00e4ritahna (inkiv\u00e4\u00e4ri, etikka, SOIJAPAPU\u00f6ljy, sokeri, suola, happamuudens\u00e4\u00e4t\u00f6aineet E 330 ja E 300), riisiviinietikka, valkosipuli, omenaviinietikka, rapsi\u00f6ljy, muunnettu maissit\u00e4rkkelys, omenasose, mausteet (sipuli, mustapippuri, gochugaru-chili), suola, aromit , v\u00e4ri (E 150c).\nHiilijalanj\u00e4lki: 0, 52 kg CO 2e \/ annos","meta":{"0":["G","[S]","VE"],"2":[],"1":["maap\u00e4hkin\u00e4\u00e4","seesaminsiemeni\u00e4","soijaa"]},"sku":"20009","nutrition":"Energia 122 kcal \/ 512 kJ, Rasva 3, 76 g, Hiilihydraatti 10, 2 g, Proteiini 6, 51 g, Suola 0, 28 g","name":"Korean Nyhtis Bowl","price":{"name":"Vegaani","value":{"student":"2.95","graduate_hyy":"5.55","contract":"7.30","student_hyy":"2.95","normal":"9.30","graduate":"5.55"}}},{"ingredients":"Peruna, Rasvaton MAITO, vesi, rapsi\u00f6ljy, muunnettu maissi- ja tapiokat\u00e4rkkelys, emulgointiaine (E 472e), aromi, v\u00e4ri (betakaroteeni), sipuli, kylm\u00e4savustettu LOHI (suola, sokeri, etikka, savuaromi), suola (Natriumkloridi, kaliumkloridi, magnesiumsulfaatti, lysiinihydrokloridi, paakkuuntumisenestoaine (piioksidi), kaliumjodidi), tilli, Mustapippuri., Hiilijalanj\u00e4lki: 0, 41 kg CO 2e \/ annos","meta":{"2":["Ilmastovalinta","Vastuullisesti kasvatettua kalaa"],"1":["kalaa","maitoa"],"0":["G","L","[S]"]},"nutrition":"Energia 118 kcal \/ 493 kJ, Rasva 4, 65 g, Hiilihydraatti 13, 53 g, Proteiini 4, 15 g, Suola 0, 75 g","sku":"7567","name":"Lohikiusaus","price":{"name":"P\u00e4iv\u00e4n lounas","value":{"graduate_hyy":"5.55","student":"2.95","student_hyy":"2.95","contract":"7.30","normal":"9.30","graduate":"5.55"}}},{"sku":"31","nutrition":"Energiaa 125 kcal (522 J), hiilihydraattia 19 g, rasvaa 2g, proteiinia 5g, suolaa 0g.","name":"Gluteenitonta kauraa","price":{"value":{"contract":"6.60","student_hyy":"6.60","normal":"6.60","graduate":"6.60","graduate_hyy":"6.60","student":"6.60"},"name":"Kotilounas"},"ingredients":"Ainesosat: Suomalainen gluteeniton kaurajyv\u00e4 (Gluteeniton t\u00e4ysjyv\u00e4KAURA).","meta":{"0":["G","[S]","VE"],"1":[],"2":["Ilmastovalinta"]}},{"nutrition":"Energiaa 65kcal (271kJ), hiilihydraattia 13g, rasvaa 0g, proteiinia 2g.","sku":"Lis\u00e4ke","price":{"name":"Lisuke","value":{"student":"0.00","graduate_hyy":"0.00","contract":"0.00","student_hyy":"0.00","normal":"0.00","graduate":"0.00"}},"name":"Keitetty\u00e4 perunaa","ingredients":"Perunaa","meta":{"0":["[S]","VE"],"2":["Ilmastovalinta"],"1":[]}},{"ingredients":"","meta":{"2":[],"1":[],"0":[]},"nutrition":"","sku":"Ateria koostuu yhdest\u00e4 p\u00e4\u00e4ruoasta, salaatista, leiv\u00e4st\u00e4, yhdest\u00e4 juomasta ja lisukkeista. Buffethinnan maksavat asiakkaat, jotka ottavat useampaa kuin yht\u00e4 p\u00e4\u00e4ruokaa p\u00e4iv\u00e4n lounaan yhteydess\u00e4.","price":{"value":{"graduate_hyy":"0.00","student":"0.00","student_hyy":"0.00","contract":"0.00","graduate":"0.00","normal":"0.00"},"name":"Tiedoitus"},"name":"Ateria koostuu yhdest\u00e4 p\u00e4\u00e4ruoasta, salaatista, leiv\u00e4st\u00e4, yhdest\u00e4 juomasta ja lisukkeista. Buffethinnan maksavat asiakkaat, jotka ottavat useampaa kuin yht\u00e4 p\u00e4\u00e4ruokaa p\u00e4iv\u00e4n lounaan yhteydess\u00e4."},{"ingredients":"","meta":{"2":[],"1":[],"0":[]},"sku":"The meal consists of one main, salad, bread, one drink, and warm garnishes. Buffet price applies to customers who take more than one main dish from days lunch","nutrition":"","name":"The meal consists of one main, salad, bread, one drink, and warm garnishes. Buffet price applies to customers who take more than one main dish from days lunch","price":{"name":"Tiedoitus","value":{"contract":"0.00","student_hyy":"0.00","graduate":"0.00","normal":"0.00","graduate_hyy":"0.00","student":"0.00"}}}],"message":null,"date":"To 31.07."},{"date":"Pe 01.08.","message":null,"data":[{"sku":"6088","nutrition":"Energiaa 105kcal (439kJ), hiilihydraattia 8g, rasvaa 5g, proteiinia 6g, suolaa 0, 42g.","price":{"value":{"graduate":"5.55","normal":"9.30","contract":"7.30","student_hyy":"2.95","graduate_hyy":"5.55","student":"2.95"},"name":"Vegaani"},"name":"Linssibolognesea","ingredients":"LINSSI, porkkana, tomaatti, kes\u00e4kurpitsa, lanttu, purjo, VALKOSIPULI, punaviinietikka, maissit\u00e4rkkelys, kasvisliemiSuola, kuivattu glukoosisiirappi, aromit, sipulijauhe 5, 8 %, muunnettu t\u00e4rkkelys, maltodekstriini, rapsi\u00f6ljy, kasvistiiviste 3, 4 % (porkkana, purjo, herkkusieni, parsakaali, paprika), mausteet (kurkuma, valkopippuri, korianterin siemenet), sokeri, etikkauute., mausteet, sokeri, etikkauute, rosmariiniuute.), fariinisokeri, oregano, mustapippuri, timjami, basilika, suola., Hiilijalanj\u00e4lki: 0, 49 kg CO 2e \/ annos","meta":{"1":[],"2":["Ilmastovalinta"],"0":["G","[S]","VE"]}},{"sku":"9365","nutrition":"Energia 134kcal \/ 561kJ, Rasva 3, 88g, Hiilihydraatti 15, 43g, Proteiini 7, 54g, Suola 0, 38g","name":"Nyht\u00f6kaura & chili -bowl","price":{"name":"Vegaani","value":{"graduate_hyy":"5.55","student":"2.95","normal":"9.30","graduate":"5.55","contract":"7.30","student_hyy":"2.95"}},"ingredients":"Nyht\u00f6kaura (Kasviproteiinisuikaleet (herneproteiini, vesi, gluteeniton t\u00e4ysjyv\u00e4kaurajauho*, gluteeniton kaurarouhe*), marinadi (vesi, rapsi\u00f6ljy, luontaiset aromit, omenat\u00e4ysmehutiiviste, porkkanat\u00e4ysmehutiiviste, sipulit\u00e4ysmehutiiviste, jodioitu suola, yrttiuute).), sambal oelek (Punainen chili 84 %, riisiviinietikka, sokeri, suola.)amerikansalaatti, porkkanaraaste, mango, kaurasuurimo gluteeniton, pikkel\u00f6itu punasipuli (Punasipuli (70%), omenviinietikka (SULFIITTI), sokeri, v\u00e4riaine (E 163), kiinteytt\u00e4misaine: kalsiumkloridi (E 509), suola, happamuudens\u00e4\u00e4t\u00f6aine: sitruunahappo (E 330).), suolap\u00e4hkin\u00e4 (MAAP\u00c4HKIN\u00c4, kasvi\u00f6ljy ( auringonkukka)), Hummus (kikherne, SEESAMINSIEMENTAHNA, rapsi\u00f6ljy, sitruunat\u00e4ysmehu, valkosipuli, mausteet, merisuola, sokeri, s\u00e4il\u00f6nt\u00e4aineet (sitruunahappo, kaliumsorbaatti).)\nHiilijalanj\u00e4lki: 0, 48 kg CO 2e \/ annos","meta":{"0":["G","[S]","VE"],"2":[],"1":["seesaminsiemeni\u00e4"]}},{"price":{"name":"P\u00e4iv\u00e4n lounas","value":{"graduate_hyy":"5.55","student":"2.95","student_hyy":"2.95","contract":"7.30","graduate":"5.55","normal":"9.30"}},"name":"Limonello broileria","nutrition":"Energiaa kcal (kJ), hiilihydraattia g, rasvaa g, proteiinia g, suolaa g.","sku":"1287","meta":{"2":[],"1":["maitoa","soijaa"],"0":["G","L","[S]"]},"ingredients":"Kananlihaa (suomi), ruokakerma (kerma, stabilointi- ja happamuudens\u00e4\u00e4t\u00f6aineet (E 412, E 331, E 1450), jogurtti, (past\u00f6roitu maito ja hapate), sipuli, sitruunat\u00e4ysmehu (sokeri, s\u00e4il\u00f6nt\u00e4aineet (E 202, E 211). sokeri, kanaliemijauhe (glukoosisiirappi, suola, kana-aromi, kananrasvaa, kananlihaa, happamuudens\u00e4\u00e4t\u00f6aineet (sitruunahappo, maitohappo, kalsiumlaktaatti), mausteet (valkopippuri, kurkuma), mausteyrtti (lipstikka), rosmariiniuute), valkosipuli, sokeri, valkoviinietikka, happamuudens\u00e4\u00e4t\u00f6aine (E 330), s\u00e4il\u00f6nt\u00e4aine (E 211), inkiv\u00e4\u00e4ritahna (etikka, soijapapu\u00f6ljy, sokeri, suola, happamuudens\u00e4\u00e4t\u00f6aineet (sitruunahappo, askorbiinihappo), kurkuma, sitruunankuorirouhe, \u00f6ljy, maissit\u00e4rkkelys, pansuola (sulfaatti), mustapippuri, chilirouhe, siirappi\nHiilijalanj\u00e4lki: 0, 77 kg CO 2e \/ annos"},{"sku":"Lis\u00e4ke","nutrition":"Energiaa 117kcal, hiilihydraattia 22g, rasvaa 1g, proteiinia 4g, suolaa 0g.","price":{"value":{"graduate_hyy":"0.00","student":"0.00","contract":"0.00","student_hyy":"0.00","normal":"0.00","graduate":"0.00"},"name":"Lisuke"},"name":"T\u00e4ysjyv\u00e4pennepastaa","ingredients":"T\u00c4YSJYV\u00c4PENNEPASTAA, vett\u00e4, \u00f6ljy\u00e4.","meta":{"0":["[S]","VE"],"1":["gluteenia"],"2":[]}},{"name":"Ateria koostuu yhdest\u00e4 p\u00e4\u00e4ruoasta, salaatista, leiv\u00e4st\u00e4, yhdest\u00e4 juomasta ja lisukkeista. Buffethinnan maksavat asiakkaat, jotka ottavat useampaa kuin yht\u00e4 p\u00e4\u00e4ruokaa p\u00e4iv\u00e4n lounaan yhteydess\u00e4.","price":{"name":"Tiedoitus","value":{"student":"0.00","graduate_hyy":"0.00","contract":"0.00","student_hyy":"0.00","normal":"0.00","graduate":"0.00"}},"nutrition":"","sku":"Ateria koostuu yhdest\u00e4 p\u00e4\u00e4ruoasta, salaatista, leiv\u00e4st\u00e4, yhdest\u00e4 juomasta ja lisukkeista. Buffethinnan maksavat asiakkaat, jotka ottavat useampaa kuin yht\u00e4 p\u00e4\u00e4ruokaa p\u00e4iv\u00e4n lounaan yhteydess\u00e4.","meta":{"0":[],"2":[],"1":[]},"ingredients":""},{"ingredients":"","meta":{"0":[],"2":[],"1":[]},"nutrition":"","sku":"The meal consists of one main, salad, bread, one drink, and warm garnishes. Buffet price applies to customers who take more than one main dish from days lunch","price":{"value":{"student":"0.00","graduate_hyy":"0.00","contract":"0.00","student_hyy":"0.00","normal":"0.00","graduate":"0.00"},"name":"Tiedoitus"},"name":"The meal consists of one main, salad, bread, one drink, and warm garnishes. Buffet price applies to customers who take more than one main dish from days lunch"}]},{"data":[],"date":"La 02.08.","message":null},{"data":[],"message":null,"date":"Su 03.08."},{"message":null,"date":"Ma 04.08.","data":[]},{"data":[],"date":"Ti 05.08.","message":null},{"message":null,"date":"Ke 06.08.","data":[]},{"date":"To 07.08.","message":null,"data":[]},{"data":[],"message":null,"date":"Pe 08.08."},{"data":[],"message":null,"date":"La 09.08."},{"data":[],"message":null,"date":"Su 10.08."}]}}]